{"Cmd":"Site","Elv":9.000000,"Lat":27.036100,"Lon":-80.361800,"Site":"060A.BHZ.N4.--","UpdateTime":"2017-03-23T19:20:43.000Z","cacheid":"060A.BHZ.N4.--"}
{"Cmd":"Site","Elv":9.000000,"Lat":25.865700,"Lon":-80.907000,"Site":"061Z.BHZ.N4.--","UpdateTime":"2017-03-23T19:30:54.000Z","cacheid":"061Z.BHZ.N4.--"}
{"Cmd":"Site","Elv":150.000000,"Lat":32.888900,"Lon":-117.105100,"Site":"109C.BHZ.TA.--","UpdateTime":"2017-03-23T19:13:15.000Z","cacheid":"109C.BHZ.TA.--"}
{"Cmd":"Site","Elv":118.000000,"Lat":32.768300,"Lon":-113.766700,"Site":"113A.HHZ.AE.--","UpdateTime":"2017-03-23T19:19:14.000Z","cacheid":"113A.HHZ.AE.--"}
{"Cmd":"Site","Elv":1652.000000,"Lat":32.532400,"Lon":-107.785100,"Site":"121A.BHZ.TA.--","UpdateTime":"2017-03-23T19:14:14.000Z","cacheid":"121A.BHZ.TA.--"}
{"Cmd":"Site","Elv":31.000000,"Lat":32.703200,"Lon":-91.403600,"Site":"143B.BHZ.N4.--","UpdateTime":"2017-03-23T19:11:10.000Z","cacheid":"143B.BHZ.N4.--"}
{"Cmd":"Site","Elv":161.000000,"Lat":32.636800,"Lon":-89.057300,"Site":"146B.BHZ.N4.--","UpdateTime":"2017-03-23T19:10:57.000Z","cacheid":"146B.BHZ.N4.--"}
{"Cmd":"Site","Elv":214.000000,"Lat":32.668600,"Lon":-84.718800,"Site":"152A.BHZ.N4.--","UpdateTime":"2017-03-23T19:06:09.000Z","cacheid":"152A.BHZ.N4.--"}
{"Cmd":"Site","Elv":111.000000,"Lat":32.613100,"Lon":-83.106600,"Site":"154A.BHZ.N4.--","UpdateTime":"2017-03-23T19:23:22.000Z","cacheid":"154A.BHZ.N4.--"}
{"Cmd":"Site","Elv":543.000000,"Lat":31.955900,"Lon":-112.811500,"Site":"214A.BHZ.TA.--","UpdateTime":"2017-03-23T19:05:29.000Z","cacheid":"214A.BHZ.TA.--"}
{"Cmd":"Site","Elv":116.000000,"Lat":32.001500,"Lon":-95.808400,"Site":"237B.BHZ.N4.--","UpdateTime":"2017-03-23T19:12:33.000Z","cacheid":"237B.BHZ.N4.--"}
{"Cmd":"Site","Elv":152.000000,"Lat":31.977800,"Lon":-86.267700,"Site":"250A.BHZ.N4.--","UpdateTime":"2017-03-23T19:21:20.000Z","cacheid":"250A.BHZ.N4.--"}
{"Cmd":"Site","Elv":45.000000,"Lat":31.926300,"Lon":-82.475800,"Site":"255A.BHZ.N4.--","UpdateTime":"2017-03-23T19:24:57.000Z","cacheid":"255A.BHZ.N4.--"}
{"Cmd":"Site","Elv":9.000000,"Lat":31.974600,"Lon":-81.026100,"Site":"257A.BHZ.N4.--","UpdateTime":"2017-03-23T19:20:12.000Z","cacheid":"257A.BHZ.N4.--"}
{"Cmd":"Site","Elv":1187.000000,"Lat":31.375700,"Lon":-109.280900,"Site":"319A.HHZ.AE.--","UpdateTime":"2017-03-23T19:19:15.000Z","cacheid":"319A.HHZ.AE.--"}
{"Cmd":"Site","Elv":37.000000,"Lat":31.374700,"Lon":-92.324900,"Site":"342B.BHZ.N4.--","UpdateTime":"2017-03-23T19:44:04.000Z","cacheid":"342B.BHZ.N4.--"}
{"Cmd":"Site","Elv":85.000000,"Lat":31.452700,"Lon":-90.731900,"Site":"344B.BHZ.N4.--","UpdateTime":"2017-03-23T19:28:39.000Z","cacheid":"344B.BHZ.N4.--"}
{"Cmd":"Site","Elv":86.000000,"Lat":31.387600,"Lon":-89.464900,"Site":"346B.BHZ.N4.--","UpdateTime":"2017-03-23T19:13:14.000Z","cacheid":"346B.BHZ.N4.--"}
{"Cmd":"Site","Elv":101.000000,"Lat":31.479300,"Lon":-84.927400,"Site":"352A.BHZ.N4.--","UpdateTime":"2017-03-23T19:25:21.000Z","cacheid":"352A.BHZ.N4.--"}
{"Cmd":"Site","Elv":248.000000,"Lat":30.782700,"Lon":-97.585000,"Site":"435B.BHZ.TA.--","UpdateTime":"2017-03-23T19:09:48.000Z","cacheid":"435B.BHZ.TA.--"}
{"Cmd":"Site","Elv":33.000000,"Lat":30.749800,"Lon":-93.189800,"Site":"441B.BHZ.N4.--","UpdateTime":"2017-03-23T19:23:12.000Z","cacheid":"441B.BHZ.N4.--"}
{"Cmd":"Site","Elv":20.000000,"Lat":30.616000,"Lon":-85.746700,"Site":"451A.BHZ.N4.--","UpdateTime":"2017-03-23T19:28:13.000Z","cacheid":"451A.BHZ.N4.--"}
{"Cmd":"Site","Elv":26.000000,"Lat":30.724800,"Lon":-82.022300,"Site":"456A.BHZ.N4.--","UpdateTime":"2017-03-23T19:25:01.000Z","cacheid":"456A.BHZ.N4.--"}
{"Cmd":"Site","Elv":8.000000,"Lat":30.044100,"Lon":-90.489400,"Site":"545B.BHZ.N4.--","UpdateTime":"2017-03-23T19:13:24.000Z","cacheid":"545B.BHZ.N4.--"}
{"Cmd":"Site","Elv":16.000000,"Lat":30.189000,"Lon":-84.431700,"Site":"553A.BHZ.N4.--","UpdateTime":"2017-03-23T19:07:44.000Z","cacheid":"553A.BHZ.N4.--"}
{"Cmd":"Site","Elv":28.000000,"Lat":29.368900,"Lon":-82.534800,"Site":"656A.BHZ.N4.--","UpdateTime":"2017-03-23T19:21:09.000Z","cacheid":"656A.BHZ.N4.--"}
{"Cmd":"Site","Elv":109.000000,"Lat":28.855300,"Lon":-97.808200,"Site":"735B.BHZ.N4.--","UpdateTime":"2017-03-23T19:21:38.000Z","cacheid":"735B.BHZ.N4.--"}
{"Cmd":"Site","Elv":-0.600000,"Lat":71.322100,"Lon":-156.617500,"Site":"A21K.BHZ.TA.--","UpdateTime":"2017-03-23T19:12:23.000Z","cacheid":"A21K.BHZ.TA.--"}
{"Cmd":"Site","Elv":30.800000,"Lat":71.987100,"Lon":-125.247200,"Site":"A36M.BHZ.TA.--","UpdateTime":"2017-03-23T19:11:14.000Z","cacheid":"A36M.BHZ.TA.--"}
{"Cmd":"Site","Elv":1603.100000,"Lat":42.637500,"Lon":74.494200,"Site":"AAK.BHZ.II.10","UpdateTime":"2017-03-23T19:18:25.000Z","cacheid":"AAK.BHZ.II.10"}
{"Cmd":"Site","Elv":172.000000,"Lat":42.301200,"Lon":-83.656700,"Site":"AAM.BHZ.US.00","UpdateTime":"2017-03-23T19:21:53.000Z","cacheid":"AAM.BHZ.US.00"}
{"Cmd":"Site","Elv":362.000000,"Lat":49.255800,"Lon":59.943100,"Site":"ABKAR.BHZ.KZ.--","UpdateTime":"2017-03-23T19:06:08.000Z","cacheid":"ABKAR.BHZ.KZ.--"}
{"Cmd":"Site","Elv":502.000000,"Lat":32.623800,"Lon":-99.643100,"Site":"ABTX.BHZ.TA.--","UpdateTime":"2017-03-23T19:09:11.000Z","cacheid":"ABTX.BHZ.TA.--"}
{"Cmd":"Site","Elv":3980.000000,"Lat":-26.835500,"Lon":-69.129100,"Site":"AC02.BHZ.C1.--","UpdateTime":"2017-03-23T19:07:27.000Z","cacheid":"AC02.BHZ.C1.--"}
{"Cmd":"Site","Elv":249.000000,"Lat":-28.204600,"Lon":-71.073900,"Site":"AC04.BHZ.C1.--","UpdateTime":"2017-03-23T19:21:32.000Z","cacheid":"AC04.BHZ.C1.--"}
{"Cmd":"Site","Elv":340.000000,"Lat":43.384300,"Lon":-73.667800,"Site":"ACCN.BHZ.LD.--","UpdateTime":"2017-03-23T19:20:30.000Z","cacheid":"ACCN.BHZ.LD.--"}
{"Cmd":"Site","Elv":862.000000,"Lat":11.968000,"Lon":-85.174000,"Site":"ACON.BHZ.NU.--","UpdateTime":"2017-03-23T19:06:32.000Z","cacheid":"ACON.BHZ.NU.--"}
{"Cmd":"Site","Elv":288.000000,"Lat":40.231900,"Lon":-82.982000,"Site":"ACSO.BHZ.US.00","UpdateTime":"2017-03-23T19:10:22.000Z","cacheid":"ACSO.BHZ.US.00"}
{"Cmd":"Site","Elv":130.000000,"Lat":51.882300,"Lon":-176.684200,"Site":"ADK.BHZ.IU.10","UpdateTime":"2017-03-23T19:26:54.000Z","cacheid":"ADK.BHZ.IU.10"}
{"Cmd":"Site","Elv":622.000000,"Lat":39.021100,"Lon":22.336000,"Site":"AGG.HHZ.HT.--","UpdateTime":"2017-03-23T19:06:15.000Z","cacheid":"AGG.HHZ.HT.--"}
{"Cmd":"Site","Elv":351.000000,"Lat":48.297700,"Lon":-95.861900,"Site":"AGMN.BHZ.US.00","UpdateTime":"2017-03-23T19:19:04.000Z","cacheid":"AGMN.BHZ.US.00"}
{"Cmd":"Site","Elv":117.900000,"Lat":18.467493,"Lon":-67.111184,"Site":"AGPR.BHZ.PR.--","UpdateTime":"2017-03-23T19:16:58.000Z","cacheid":"AGPR.BHZ.PR.--"}
{"Cmd":"Site","Elv":1960.000000,"Lat":42.765400,"Lon":-111.100400,"Site":"AHID.BHZ.US.00","UpdateTime":"2017-03-23T19:20:33.000Z","cacheid":"AHID.BHZ.US.00"}
{"Cmd":"Site","Elv":1524.000000,"Lat":19.372067,"Lon":-155.457228,"Site":"AIND.HHZ.HV.--","UpdateTime":"2017-03-23T19:07:21.000Z","cacheid":"AIND.HHZ.HV.--"}
{"Cmd":"Site","Elv":32.900000,"Lat":-37.796350,"Lon":77.569186,"Site":"AIS.BHZ.G.00","UpdateTime":"2017-03-23T19:42:57.000Z","cacheid":"AIS.BHZ.G.00"}
{"Cmd":"Site","Elv":160.000000,"Lat":50.701200,"Lon":29.224200,"Site":"AKBB.BHZ.IM.--","UpdateTime":"2017-03-23T19:19:06.000Z","cacheid":"AKBB.BHZ.IM.--"}
{"Cmd":"Site","Elv":19.200000,"Lat":54.135170,"Lon":-165.771850,"Site":"AKUT.BHZ.AT.--","UpdateTime":"2017-03-23T19:18:14.000Z","cacheid":"AKUT.BHZ.AT.--"}
{"Cmd":"Site","Elv":390.000000,"Lat":41.649200,"Lon":-80.144800,"Site":"ALLY.BHZ.LD.--","UpdateTime":"2017-03-23T19:19:53.000Z","cacheid":"ALLY.BHZ.LD.--"}
{"Cmd":"Site","Elv":110.000000,"Lat":40.895700,"Lon":26.049700,"Site":"ALN.HHZ.HT.--","UpdateTime":"2017-03-23T19:05:08.000Z","cacheid":"ALN.HHZ.HT.--"}
{"Cmd":"Site","Elv":116.000000,"Lat":51.377100,"Lon":179.300000,"Site":"AMKA.BHZ.AV.--","UpdateTime":"2017-03-23T19:26:50.000Z","cacheid":"AMKA.BHZ.AV.--"}
{"Cmd":"Site","Elv":1010.000000,"Lat":34.883700,"Lon":-101.680800,"Site":"AMTX.BHZ.US.00","UpdateTime":"2017-03-23T19:09:04.000Z","cacheid":"AMTX.BHZ.US.00"}
{"Cmd":"Site","Elv":317.000000,"Lat":16.341200,"Lon":145.711500,"Site":"ANA2.BHZ.MI.--","UpdateTime":"2017-03-23T19:17:55.000Z","cacheid":"ANA2.BHZ.MI.--"}
{"Cmd":"Site","Elv":0.000000,"Lat":65.616000,"Lon":-37.637000,"Site":"ANGG.BHZ.DK.--","UpdateTime":"2017-03-23T19:24:37.000Z","cacheid":"ANGG.BHZ.DK.--"}
{"Cmd":"Site","Elv":338.000000,"Lat":64.564600,"Lon":-165.373200,"Site":"ANM.BHZ.AK.--","UpdateTime":"2017-03-23T19:42:54.000Z","cacheid":"ANM.BHZ.AK.--"}
{"Cmd":"Site","Elv":1760.700000,"Lat":34.945900,"Lon":-106.457200,"Site":"ANMO.BHZ.IU.10","UpdateTime":"2017-03-23T19:10:25.000Z","cacheid":"ANMO.BHZ.IU.10"}
{"Cmd":"Site","Elv":1090.000000,"Lat":39.868000,"Lon":32.793400,"Site":"ANTO.BHZ.IU.10","UpdateTime":"2017-03-23T19:14:37.000Z","cacheid":"ANTO.BHZ.IU.10"}
{"Cmd":"Site","Elv":354.100000,"Lat":18.346645,"Lon":-66.753975,"Site":"AOPR.BHZ.PR.--","UpdateTime":"2017-03-23T19:25:52.000Z","cacheid":"AOPR.BHZ.PR.--"}
{"Cmd":"Site","Elv":31.000000,"Lat":-18.370800,"Lon":-70.341900,"Site":"AP01.BHZ.C1.--","UpdateTime":"2017-03-23T19:17:23.000Z","cacheid":"AP01.BHZ.C1.--"}
{"Cmd":"Site","Elv":158.000000,"Lat":-20.475790,"Lon":-55.699710,"Site":"AQDB.HHZ.BL.--","UpdateTime":"2017-03-23T19:19:31.000Z","cacheid":"AQDB.HHZ.BL.--"}
{"Cmd":"Site","Elv":695.000000,"Lat":42.354000,"Lon":13.405000,"Site":"AQU.BHZ.MN.--","UpdateTime":"2017-03-23T19:07:38.000Z","cacheid":"AQU.BHZ.MN.--"}
{"Cmd":"Site","Elv":1112.000000,"Lat":-30.419800,"Lon":151.628000,"Site":"ARMA.BHZ.AU.--","UpdateTime":"2017-03-23T19:12:38.000Z","cacheid":"ARMA.BHZ.AU.--"}
{"Cmd":"Site","Elv":250.000000,"Lat":56.430200,"Lon":58.562500,"Site":"ARU.BHZ.II.00","UpdateTime":"2017-03-23T19:06:10.000Z","cacheid":"ARU.BHZ.II.00"}
{"Cmd":"Site","Elv":607.000000,"Lat":-23.666000,"Lon":133.904000,"Site":"AS31.BHZ.AU.--","UpdateTime":"2017-03-23T19:05:20.000Z","cacheid":"AS31.BHZ.AU.--"}
{"Cmd":"Site","Elv":173.000000,"Lat":-7.932700,"Lon":-14.360100,"Site":"ASCN.BHZ.II.10","UpdateTime":"2017-03-23T19:20:11.000Z","cacheid":"ASCN.BHZ.II.10"}
{"Cmd":"Site","Elv":610.000000,"Lat":11.530725,"Lon":42.846634,"Site":"ATD.BHZ.G.00","UpdateTime":"2017-03-23T19:21:48.000Z","cacheid":"ATD.BHZ.G.00"}
{"Cmd":"Site","Elv":23.000000,"Lat":12.505567,"Lon":-70.010567,"Site":"AUA1.BHZ.PR.--","UpdateTime":"2017-03-23T19:14:44.000Z","cacheid":"AUA1.BHZ.PR.--"}
{"Cmd":"Site","Elv":238.000000,"Lat":32.972800,"Lon":-97.555300,"Site":"AZDA.EHZ.ZW.01","UpdateTime":"2017-03-23T19:06:45.000Z","cacheid":"AZDA.EHZ.ZW.01"}
{"Cmd":"Site","Elv":224.000000,"Lat":32.963420,"Lon":-97.535380,"Site":"AZEP.HNZ.NQ.01","UpdateTime":"2017-03-23T19:42:14.000Z","cacheid":"AZEP.HNZ.NQ.01"}
{"Cmd":"Site","Elv":354.000000,"Lat":48.360300,"Lon":-93.726100,"Site":"B35B.BHZ.N4.--","UpdateTime":"2017-03-23T19:20:05.000Z","cacheid":"B35B.BHZ.N4.--"}
{"Cmd":"Site","Elv":418.000000,"Lat":44.621320,"Lon":-123.789240,"Site":"BABR.BHZ.UW.--","UpdateTime":"2017-03-23T19:21:59.000Z","cacheid":"BABR.BHZ.UW.--"}
{"Cmd":"Site","Elv":120.000000,"Lat":39.640000,"Lon":27.880000,"Site":"BALB.HHZ.KO.--","UpdateTime":"2017-03-23T19:14:41.000Z","cacheid":"BALB.HHZ.KO.--"}
{"Cmd":"Site","Elv":529.000000,"Lat":32.680050,"Lon":-116.672150,"Site":"BAR.BHZ.CI.--","UpdateTime":"2017-03-23T19:15:50.000Z","cacheid":"BAR.BHZ.CI.--"}
{"Cmd":"Site","Elv":2121.000000,"Lat":34.150000,"Lon":-106.627830,"Site":"BAR.EHZ.SC.--","UpdateTime":"2017-03-23T19:09:45.000Z","cacheid":"BAR.EHZ.SC.--"}
{"Cmd":"Site","Elv":1689.000000,"Lat":61.059500,"Lon":-141.662200,"Site":"BARN.BHZ.AK.--","UpdateTime":"2017-03-23T19:06:29.000Z","cacheid":"BARN.BHZ.AK.--"}
{"Cmd":"Site","Elv":54.000000,"Lat":10.097800,"Lon":-83.376100,"Site":"BATAN.HHZ.OV.--","UpdateTime":"2017-03-23T19:11:47.000Z","cacheid":"BATAN.HHZ.OV.--"}
{"Cmd":"Site","Elv":336.000000,"Lat":47.276700,"Lon":-66.059900,"Site":"BATG.HHZ.CN.--","UpdateTime":"2017-03-23T19:44:45.000Z","cacheid":"BATG.HHZ.CN.--"}
{"Cmd":"Site","Elv":106.000000,"Lat":8.943300,"Lon":-68.041500,"Site":"BAUV.BHZ.VE.--","UpdateTime":"2017-03-23T19:34:24.000Z","cacheid":"BAUV.BHZ.VE.--"}
{"Cmd":"Site","Elv":14.000000,"Lat":52.184700,"Lon":-128.113300,"Site":"BBB.BHZ.CN.--","UpdateTime":"2017-03-23T19:17:35.000Z","cacheid":"BBB.BHZ.CN.--"}
{"Cmd":"Site","Elv":180.000000,"Lat":13.143400,"Lon":-59.558800,"Site":"BBGH.BHZ.CU.00","UpdateTime":"2017-03-23T19:21:04.000Z","cacheid":"BBGH.BHZ.CU.00"}
{"Cmd":"Site","Elv":295.000000,"Lat":-32.809600,"Lon":136.058300,"Site":"BBOO.BHZ.AU.--","UpdateTime":"2017-03-23T19:18:21.000Z","cacheid":"BBOO.BHZ.AU.--"}
{"Cmd":"Site","Elv":30.000000,"Lat":32.371299,"Lon":-64.696299,"Site":"BBSR.BHZ.IU.10","UpdateTime":"2017-03-23T19:26:58.000Z","cacheid":"BBSR.BHZ.IU.10"}
{"Cmd":"Site","Elv":61.000000,"Lat":9.166500,"Lon":-79.837300,"Site":"BCIP.BHZ.CU.00","UpdateTime":"2017-03-23T19:20:27.000Z","cacheid":"BCIP.BHZ.CU.00"}
{"Cmd":"Site","Elv":302.000000,"Lat":35.656729,"Lon":-97.609276,"Site":"BCOK.HHZ.OK.--","UpdateTime":"2017-03-23T19:11:27.000Z","cacheid":"BCOK.HHZ.OK.--"}
{"Cmd":"Site","Elv":421.800000,"Lat":59.953400,"Lon":-139.636900,"Site":"BCP.BHZ.AK.--","UpdateTime":"2017-03-23T19:05:06.000Z","cacheid":"BCP.BHZ.AK.--"}
{"Cmd":"Site","Elv":60.000000,"Lat":42.335000,"Lon":-71.170500,"Site":"BCX.HHZ.NE.00","UpdateTime":"2017-03-23T19:16:30.000Z","cacheid":"BCX.HHZ.NE.00"}
{"Cmd":"Site","Elv":2194.000000,"Lat":44.310800,"Lon":-113.405200,"Site":"BCYI.EHZ.IE.--","UpdateTime":"2017-03-23T19:08:47.000Z","cacheid":"BCYI.EHZ.IE.--"}
{"Cmd":"Site","Elv":1095.000000,"Lat":-15.641760,"Lon":-48.014780,"Site":"BDFB.BHZ.GT.--","UpdateTime":"2017-03-23T19:19:51.000Z","cacheid":"BDFB.BHZ.GT.--"}
{"Cmd":"Site","Elv":1920.000000,"Lat":37.125560,"Lon":70.576110,"Site":"BDK.BHZ.IM.--","UpdateTime":"2017-03-23T19:05:54.000Z","cacheid":"BDK.BHZ.IM.--"}
{"Cmd":"Site","Elv":1743.000000,"Lat":39.866600,"Lon":-120.359600,"Site":"BEK.HHZ.NN.--","UpdateTime":"2017-03-23T19:06:24.000Z","cacheid":"BEK.HHZ.NN.--"}
{"Cmd":"Site","Elv":624.000000,"Lat":60.393200,"Lon":-143.700400,"Site":"BERG.BHZ.AK.--","UpdateTime":"2017-03-23T19:21:51.000Z","cacheid":"BERG.BHZ.AK.--"}
{"Cmd":"Site","Elv":867.000000,"Lat":58.579200,"Lon":-134.855900,"Site":"BESE.BHZ.AK.--","UpdateTime":"2017-03-23T19:11:47.000Z","cacheid":"BESE.BHZ.AK.--"}
{"Cmd":"Site","Elv":589.000000,"Lat":48.330100,"Lon":8.329600,"Site":"BFO.BHZ.II.00","UpdateTime":"2017-03-23T19:16:18.000Z","cacheid":"BFO.BHZ.II.00"}
{"Cmd":"Site","Elv":283.000000,"Lat":-40.679647,"Lon":176.246245,"Site":"BFZ.HHZ.NZ.10","UpdateTime":"2017-03-23T19:19:07.000Z","cacheid":"BFZ.HHZ.NZ.10"}
{"Cmd":"Site","Elv":573.000000,"Lat":41.408300,"Lon":-98.150200,"Site":"BGNE.BHZ.TA.--","UpdateTime":"2017-03-23T19:09:19.000Z","cacheid":"BGNE.BHZ.TA.--"}
{"Cmd":"Site","Elv":1640.000000,"Lat":40.920830,"Lon":-113.029830,"Site":"BGU.HHZ.UU.01","UpdateTime":"2017-03-23T19:18:57.000Z","cacheid":"BGU.HHZ.UU.01"}
{"Cmd":"Site","Elv":101.000000,"Lat":-41.408231,"Lon":174.871115,"Site":"BHW.EHZ.NZ.10","UpdateTime":"2017-03-23T19:20:19.000Z","cacheid":"BHW.EHZ.NZ.10"}
{"Cmd":"Site","Elv":320.000000,"Lat":68.065300,"Lon":166.453100,"Site":"BILL.BHZ.IU.00","UpdateTime":"2017-03-23T19:18:14.000Z","cacheid":"BILL.BHZ.IU.00"}
{"Cmd":"Site","Elv":391.000000,"Lat":14.518000,"Lon":-61.066000,"Site":"BIM.BHZ.WI.00","UpdateTime":"2017-03-23T19:44:21.000Z","cacheid":"BIM.BHZ.WI.00"}
{"Cmd":"Site","Elv":498.000000,"Lat":42.199300,"Lon":-75.986100,"Site":"BINY.BHZ.US.00","UpdateTime":"2017-03-23T19:22:05.000Z","cacheid":"BINY.BHZ.US.00"}
{"Cmd":"Site","Elv":132.000000,"Lat":34.645000,"Lon":-80.461500,"Site":"BIRD.HHZ.CO.00","UpdateTime":"2017-03-23T19:31:15.000Z","cacheid":"BIRD.HHZ.CO.00"}
{"Cmd":"Site","Elv":200.000000,"Lat":10.475700,"Lon":-66.269200,"Site":"BIRV.BHZ.VE.--","UpdateTime":"2017-03-23T19:41:28.000Z","cacheid":"BIRV.BHZ.VE.--"}
{"Cmd":"Site","Elv":137.000000,"Lat":40.018300,"Lon":116.167900,"Site":"BJT.HHZ.IC.10","UpdateTime":"2017-03-23T19:20:00.000Z","cacheid":"BJT.HHZ.IC.10"}
{"Cmd":"Site","Elv":110.000000,"Lat":-1.107300,"Lon":116.904800,"Site":"BKB.BHZ.GE.--","UpdateTime":"2017-03-23T19:18:09.000Z","cacheid":"BKB.BHZ.GE.--"}
{"Cmd":"Site","Elv":62.000000,"Lat":0.326200,"Lon":101.039600,"Site":"BKNI.BHZ.GE.--","UpdateTime":"2017-03-23T19:05:28.000Z","cacheid":"BKNI.BHZ.GE.--"}
{"Cmd":"Site","Elv":706.000000,"Lat":-39.165666,"Lon":176.492544,"Site":"BKZ.HHZ.NZ.10","UpdateTime":"2017-03-23T19:20:17.000Z","cacheid":"BKZ.HHZ.NZ.10"}
{"Cmd":"Site","Elv":634.000000,"Lat":37.211300,"Lon":-80.420490,"Site":"BLA.BHZ.US.00","UpdateTime":"2017-03-23T19:10:31.000Z","cacheid":"BLA.BHZ.US.00"}
{"Cmd":"Site","Elv":246.000000,"Lat":39.171900,"Lon":-86.522200,"Site":"BLO.BHZ.NM.--","UpdateTime":"2017-03-23T19:09:58.000Z","cacheid":"BLO.BHZ.NM.--"}
{"Cmd":"Site","Elv":301.000000,"Lat":36.760615,"Lon":-97.215026,"Site":"BLOK.HHZ.OK.--","UpdateTime":"2017-03-23T19:12:04.000Z","cacheid":"BLOK.HHZ.OK.--"}
{"Cmd":"Site","Elv":1594.000000,"Lat":40.431400,"Lon":-117.221000,"Site":"BMN.HHZ.LB.01","UpdateTime":"2017-03-23T19:18:50.000Z","cacheid":"BMN.HHZ.LB.01"}
{"Cmd":"Site","Elv":1154.000000,"Lat":44.852500,"Lon":-117.306000,"Site":"BMO.BHZ.US.00","UpdateTime":"2017-03-23T19:17:02.000Z","cacheid":"BMO.BHZ.US.00"}
{"Cmd":"Site","Elv":842.000000,"Lat":60.967700,"Lon":-144.605100,"Site":"BMR.BHZ.AK.--","UpdateTime":"2017-03-23T19:05:16.000Z","cacheid":"BMR.BHZ.AK.--"}
{"Cmd":"Site","Elv":1345.000000,"Lat":45.052000,"Lon":6.678000,"Site":"BNI.BHZ.MN.--","UpdateTime":"2017-03-23T19:19:21.000Z","cacheid":"BNI.BHZ.MN.--"}
{"Cmd":"Site","Elv":1380.000000,"Lat":38.852200,"Lon":35.847200,"Site":"BNN.BHZ.KO.--","UpdateTime":"2017-03-23T19:14:41.000Z","cacheid":"BNN.BHZ.KO.--"}
{"Cmd":"Site","Elv":262.500000,"Lat":-34.391700,"Lon":-71.084800,"Site":"BO01.BHZ.C1.--","UpdateTime":"2017-03-23T19:12:11.000Z","cacheid":"BO01.BHZ.C1.--"}
{"Cmd":"Site","Elv":886.000000,"Lat":-34.792400,"Lon":-70.781400,"Site":"BO02.BHZ.C1.--","UpdateTime":"2017-03-23T19:12:08.000Z","cacheid":"BO02.BHZ.C1.--"}
{"Cmd":"Site","Elv":376.000000,"Lat":12.449300,"Lon":-85.665900,"Site":"BOAB.BHZ.GE.--","UpdateTime":"2017-03-23T19:07:28.000Z","cacheid":"BOAB.BHZ.GE.--"}
{"Cmd":"Site","Elv":114.000000,"Lat":2.395300,"Lon":-60.522500,"Site":"BOAV.HHZ.BR.--","UpdateTime":"2017-03-23T19:19:24.000Z","cacheid":"BOAV.HHZ.BR.--"}
{"Cmd":"Site","Elv":1737.000000,"Lat":42.492220,"Lon":75.942220,"Site":"BOOM.BHZ.KR.--","UpdateTime":"2017-03-23T19:18:44.000Z","cacheid":"BOOM.BHZ.KR.--"}
{"Cmd":"Site","Elv":105.000000,"Lat":64.747400,"Lon":-21.326800,"Site":"BORG.BHZ.II.10","UpdateTime":"2017-03-23T19:15:33.000Z","cacheid":"BORG.BHZ.II.10"}
{"Cmd":"Site","Elv":1180.000000,"Lat":-28.614100,"Lon":25.255530,"Site":"BOSA.BHZ.GT.00","UpdateTime":"2017-03-23T19:21:15.000Z","cacheid":"BOSA.BHZ.GT.00"}
{"Cmd":"Site","Elv":1589.000000,"Lat":45.596970,"Lon":-111.629670,"Site":"BOZ.BHZ.US.00","UpdateTime":"2017-03-23T19:08:44.000Z","cacheid":"BOZ.BHZ.US.00"}
{"Cmd":"Site","Elv":619.000000,"Lat":64.099700,"Lon":-150.987300,"Site":"BPAW.BHZ.AK.--","UpdateTime":"2017-03-23T19:18:26.000Z","cacheid":"BPAW.BHZ.AK.--"}
{"Cmd":"Site","Elv":1414.800000,"Lat":39.725300,"Lon":33.639000,"Site":"BR131.BHZ.IM.--","UpdateTime":"2017-03-23T19:07:34.000Z","cacheid":"BR131.BHZ.IM.--"}
{"Cmd":"Site","Elv":1196.100000,"Lat":39.841700,"Lon":32.776000,"Site":"BR231.BHZ.IM.--","UpdateTime":"2017-03-23T19:17:45.000Z","cacheid":"BR231.BHZ.IM.--"}
{"Cmd":"Site","Elv":61.000000,"Lat":31.168700,"Lon":-87.050600,"Site":"BRAL.BHZ.US.00","UpdateTime":"2017-03-23T19:06:10.000Z","cacheid":"BRAL.BHZ.US.00"}
{"Cmd":"Site","Elv":1136.000000,"Lat":45.973400,"Lon":-117.227700,"Site":"BRAN.BHZ.UW.--","UpdateTime":"2017-03-23T19:12:18.000Z","cacheid":"BRAN.BHZ.UW.--"}
{"Cmd":"Site","Elv":409.000000,"Lat":59.751100,"Lon":-150.906300,"Site":"BRLK.BHZ.AK.--","UpdateTime":"2017-03-23T19:12:27.000Z","cacheid":"BRLK.BHZ.AK.--"}
{"Cmd":"Site","Elv":1687.000000,"Lat":39.473000,"Lon":-110.740000,"Site":"BRPU.HHZ.UU.01","UpdateTime":"2017-03-23T19:13:31.000Z","cacheid":"BRPU.HHZ.UU.01"}
{"Cmd":"Site","Elv":1320.000000,"Lat":8.794000,"Lon":-82.687800,"Site":"BRU2.HHZ.PA.--","UpdateTime":"2017-03-23T19:07:35.000Z","cacheid":"BRU2.HHZ.PA.--"}
{"Cmd":"Site","Elv":315.000000,"Lat":53.058100,"Lon":70.282800,"Site":"BRVK.BHZ.II.10","UpdateTime":"2017-03-23T19:20:59.000Z","cacheid":"BRVK.BHZ.II.10"}
{"Cmd":"Site","Elv":116.000000,"Lat":41.917000,"Lon":-71.537800,"Site":"BRYW.HHZ.NE.00","UpdateTime":"2017-03-23T19:29:54.000Z","cacheid":"BRYW.HHZ.NE.00"}
{"Cmd":"Site","Elv":277.000000,"Lat":-41.714915,"Lon":173.875741,"Site":"BSWZ.EHZ.NZ.10","UpdateTime":"2017-03-23T19:14:06.000Z","cacheid":"BSWZ.EHZ.NZ.10"}
{"Cmd":"Site","Elv":980.000000,"Lat":40.057500,"Lon":70.818050,"Site":"BTK.BHZ.KR.--","UpdateTime":"2017-03-23T19:06:17.000Z","cacheid":"BTK.BHZ.KR.--"}
{"Cmd":"Site","Elv":964.000000,"Lat":44.197310,"Lon":-122.986190,"Site":"BUCK.BHZ.UO.--","UpdateTime":"2017-03-23T19:18:45.000Z","cacheid":"BUCK.BHZ.UO.--"}
{"Cmd":"Site","Elv":1216.900000,"Lat":47.644000,"Lon":25.200200,"Site":"BUR31.BHZ.RO.--","UpdateTime":"2017-03-23T19:14:36.000Z","cacheid":"BUR31.BHZ.RO.--"}
{"Cmd":"Site","Elv":2224.000000,"Lat":42.766700,"Lon":-109.558300,"Site":"BW06.BHZ.US.00","UpdateTime":"2017-03-23T19:14:20.000Z","cacheid":"BW06.BHZ.US.00"}
{"Cmd":"Site","Elv":356.000000,"Lat":64.173200,"Lon":-149.299100,"Site":"BWN.BHZ.AK.--","UpdateTime":"2017-03-23T19:09:13.000Z","cacheid":"BWN.BHZ.AK.--"}
{"Cmd":"Site","Elv":1079.000000,"Lat":19.412087,"Lon":-155.259877,"Site":"BYL.HHZ.HV.--","UpdateTime":"2017-03-23T19:07:17.000Z","cacheid":"BYL.HHZ.HV.--"}
{"Cmd":"Site","Elv":700.000000,"Lat":-35.318715,"Lon":148.996325,"Site":"CAN.BHZ.G.00","UpdateTime":"2017-03-23T19:05:39.000Z","cacheid":"CAN.BHZ.G.00"}
{"Cmd":"Site","Elv":179.000000,"Lat":9.688000,"Lon":-85.107000,"Site":"CAO2.HHZ.OV.--","UpdateTime":"2017-03-23T19:06:35.000Z","cacheid":"CAO2.HHZ.OV.--"}
{"Cmd":"Site","Elv":24.000000,"Lat":19.697600,"Lon":-72.178400,"Site":"CAPH.HHZ.AY.--","UpdateTime":"2017-03-23T19:10:44.000Z","cacheid":"CAPH.HHZ.AY.--"}
{"Cmd":"Site","Elv":47.000000,"Lat":60.768300,"Lon":-151.153900,"Site":"CAPN.BHZ.AK.--","UpdateTime":"2017-03-23T19:12:24.000Z","cacheid":"CAPN.BHZ.AK.--"}
{"Cmd":"Site","Elv":21.000000,"Lat":38.889580,"Lon":-77.009210,"Site":"CAPTL.HNZ.NQ.01","UpdateTime":"2017-03-23T19:25:03.000Z","cacheid":"CAPTL.HNZ.NQ.01"}
{"Cmd":"Site","Elv":60.000000,"Lat":37.586800,"Lon":-1.001200,"Site":"CART.BHZ.WM.--","UpdateTime":"2017-03-23T19:21:02.000Z","cacheid":"CART.BHZ.WM.--"}
{"Cmd":"Site","Elv":385.000000,"Lat":34.993000,"Lon":-82.931700,"Site":"CASEE.HHZ.CO.00","UpdateTime":"2017-03-23T19:10:23.000Z","cacheid":"CASEE.HHZ.CO.00"}
{"Cmd":"Site","Elv":390.000000,"Lat":42.790800,"Lon":10.865200,"Site":"CASP.BHZ.IV.--","UpdateTime":"2017-03-23T19:36:45.000Z","cacheid":"CASP.BHZ.IV.--"}
{"Cmd":"Site","Elv":611.000000,"Lat":63.418800,"Lon":-152.084400,"Site":"CAST.BHZ.AK.--","UpdateTime":"2017-03-23T19:08:35.000Z","cacheid":"CAST.BHZ.AK.--"}
{"Cmd":"Site","Elv":5.000000,"Lat":-66.279200,"Lon":110.535400,"Site":"CASY.BHZ.IU.10","UpdateTime":"2017-03-23T19:05:09.000Z","cacheid":"CASY.BHZ.IU.10"}
{"Cmd":"Site","Elv":277.000000,"Lat":50.031500,"Lon":-125.365200,"Site":"CBB.BHZ.CN.--","UpdateTime":"2017-03-23T19:08:05.000Z","cacheid":"CBB.BHZ.CN.--"}
{"Cmd":"Site","Elv":677.000000,"Lat":38.814000,"Lon":-99.737400,"Site":"CBKS.BHZ.US.00","UpdateTime":"2017-03-23T19:09:02.000Z","cacheid":"CBKS.BHZ.US.00"}
{"Cmd":"Site","Elv":70.000000,"Lat":38.204600,"Lon":-77.373200,"Site":"CBN.BHZ.US.00","UpdateTime":"2017-03-23T19:06:57.000Z","cacheid":"CBN.BHZ.US.00"}
{"Cmd":"Site","Elv":1250.000000,"Lat":32.313100,"Lon":-116.663600,"Site":"CBX.HHZ.BC.--","UpdateTime":"2017-03-23T19:14:29.000Z","cacheid":"CBX.HHZ.BC.--"}
{"Cmd":"Site","Elv":604.900000,"Lat":18.271674,"Lon":-65.856634,"Site":"CBYP.BHZ.PR.--","UpdateTime":"2017-03-23T19:15:33.000Z","cacheid":"CBYP.BHZ.PR.--"}
{"Cmd":"Site","Elv":72.000000,"Lat":33.917000,"Lon":-91.772000,"Site":"CCAR.HHZ.AG.00","UpdateTime":"2017-03-23T19:09:35.000Z","cacheid":"CCAR.HHZ.AG.00"}
{"Cmd":"Site","Elv":233.000000,"Lat":64.645300,"Lon":-147.805300,"Site":"CCB.BHZ.AK.--","UpdateTime":"2017-03-23T19:06:54.000Z","cacheid":"CCB.BHZ.AK.--"}
{"Cmd":"Site","Elv":89.600000,"Lat":21.193400,"Lon":-77.417300,"Site":"CCCC.HHZ.CW.00","UpdateTime":"2017-03-23T19:07:31.000Z","cacheid":"CCCC.HHZ.CW.00"}
{"Cmd":"Site","Elv":1625.000000,"Lat":16.281885,"Lon":-92.136919,"Site":"CCIG.BHZ.MX.--","UpdateTime":"2017-03-23T19:05:05.000Z","cacheid":"CCIG.BHZ.MX.--"}
{"Cmd":"Site","Elv":171.500000,"Lat":38.055700,"Lon":-91.244600,"Site":"CCM.BHZ.IU.10","UpdateTime":"2017-03-23T19:09:14.000Z","cacheid":"CCM.BHZ.IU.10"}
{"Cmd":"Site","Elv":378.000000,"Lat":35.356842,"Lon":-97.656074,"Site":"CCOK.HHZ.OK.--","UpdateTime":"2017-03-23T19:08:57.000Z","cacheid":"CCOK.HHZ.OK.--"}
{"Cmd":"Site","Elv":561.000000,"Lat":46.558500,"Lon":-119.854800,"Site":"CCRK.HHZ.UW.--","UpdateTime":"2017-03-23T19:18:41.000Z","cacheid":"CCRK.HHZ.UW.--"}
{"Cmd":"Site","Elv":2127.000000,"Lat":37.550600,"Lon":-113.362700,"Site":"CCUT.HHZ.UU.01","UpdateTime":"2017-03-23T19:14:17.000Z","cacheid":"CCUT.HHZ.UU.01"}
{"Cmd":"Site","Elv":36.600000,"Lat":31.867887,"Lon":-116.664460,"Site":"CCX.HHZ.BC.--","UpdateTime":"2017-03-23T19:14:15.000Z","cacheid":"CCX.HHZ.BC.--"}
{"Cmd":"Site","Elv":118.000000,"Lat":8.573200,"Lon":-82.872700,"Site":"CDITO.HHZ.OV.--","UpdateTime":"2017-03-23T19:12:45.000Z","cacheid":"CDITO.HHZ.OV.--"}
{"Cmd":"Site","Elv":68.000000,"Lat":17.731667,"Lon":-64.714722,"Site":"CDVI.BHZ.PR.--","UpdateTime":"2017-03-23T19:24:33.000Z","cacheid":"CDVI.BHZ.PR.--"}
{"Cmd":"Site","Elv":702.000000,"Lat":38.260300,"Lon":15.893900,"Site":"CEL.BHZ.MN.--","UpdateTime":"2017-03-23T19:05:09.000Z","cacheid":"CEL.BHZ.MN.--"}
{"Cmd":"Site","Elv":195.600000,"Lat":18.074850,"Lon":-66.579167,"Site":"CELP.BHZ.PR.--","UpdateTime":"2017-03-23T19:21:59.000Z","cacheid":"CELP.BHZ.PR.--"}
{"Cmd":"Site","Elv":17.000000,"Lat":56.301400,"Lon":-158.414150,"Site":"CHGN.BHZ.AT.--","UpdateTime":"2017-03-23T19:20:45.000Z","cacheid":"CHGN.BHZ.AT.--"}
{"Cmd":"Site","Elv":1049.000000,"Lat":38.656900,"Lon":69.158200,"Site":"CHGR.HHZ.TJ.--","UpdateTime":"2017-03-23T19:06:02.000Z","cacheid":"CHGR.HHZ.TJ.--"}
{"Cmd":"Site","Elv":960.000000,"Lat":14.559928,"Lon":-89.341365,"Site":"CHIE.HHZ.GI.--","UpdateTime":"2017-03-23T19:09:18.000Z","cacheid":"CHIE.HHZ.GI.--"}
{"Cmd":"Site","Elv":338.000000,"Lat":35.561127,"Lon":-97.061303,"Site":"CHOK.HHZ.OK.--","UpdateTime":"2017-03-23T19:08:56.000Z","cacheid":"CHOK.HHZ.OK.--"}
{"Cmd":"Site","Elv":420.000000,"Lat":18.814100,"Lon":98.944300,"Site":"CHTO.BHZ.IU.10","UpdateTime":"2017-03-23T19:05:21.000Z","cacheid":"CHTO.BHZ.IU.10"}
{"Cmd":"Site","Elv":710.000000,"Lat":46.311600,"Lon":12.444800,"Site":"CIMO.HHZ.NI.--","UpdateTime":"2017-03-23T19:19:21.000Z","cacheid":"CIMO.HHZ.NI.--"}
{"Cmd":"Site","Elv":145.000000,"Lat":48.025790,"Lon":2.260000,"Site":"CLF.BHZ.G.00","UpdateTime":"2017-03-23T19:21:33.000Z","cacheid":"CLF.BHZ.G.00"}
{"Cmd":"Site","Elv":230.000000,"Lat":51.307700,"Lon":13.002600,"Site":"CLL.BHZ.GR.--","UpdateTime":"2017-03-23T19:17:32.000Z","cacheid":"CLL.BHZ.GR.--"}
{"Cmd":"Site","Elv":174.000000,"Lat":48.820300,"Lon":-124.130900,"Site":"CLRS.HHZ.CN.--","UpdateTime":"2017-03-23T19:29:28.000Z","cacheid":"CLRS.HHZ.CN.--"}
{"Cmd":"Site","Elv":944.000000,"Lat":37.578000,"Lon":13.216000,"Site":"CLTB.BHZ.MN.--","UpdateTime":"2017-03-23T19:42:13.000Z","cacheid":"CLTB.BHZ.MN.--"}
{"Cmd":"Site","Elv":208.000000,"Lat":36.091150,"Lon":-86.331500,"Site":"CLTN.HHZ.NM.00","UpdateTime":"2017-03-23T19:09:58.000Z","cacheid":"CLTN.HHZ.NM.00"}
{"Cmd":"Site","Elv":306.600000,"Lat":18.457500,"Lon":98.942900,"Site":"CM31.BHZ.IM.--","UpdateTime":"2017-03-23T19:11:06.000Z","cacheid":"CM31.BHZ.IM.--"}
{"Cmd":"Site","Elv":695.000000,"Lat":38.034550,"Lon":-120.386510,"Site":"CMB.BHZ.BK.00","UpdateTime":"2017-03-23T19:13:10.000Z","cacheid":"CMB.BHZ.BK.00"}
{"Cmd":"Site","Elv":281.000000,"Lat":-41.749017,"Lon":174.213825,"Site":"CMWZ.EHZ.NZ.10","UpdateTime":"2017-03-23T19:36:02.000Z","cacheid":"CMWZ.EHZ.NZ.10"}
{"Cmd":"Site","Elv":29.000000,"Lat":35.239300,"Lon":-77.890100,"Site":"CNNC.BHZ.US.00","UpdateTime":"2017-03-23T19:06:44.000Z","cacheid":"CNNC.BHZ.US.00"}
{"Cmd":"Site","Elv":564.000000,"Lat":59.525100,"Lon":-151.237300,"Site":"CNP.BHZ.AK.--","UpdateTime":"2017-03-23T19:12:20.000Z","cacheid":"CNP.BHZ.AK.--"}
{"Cmd":"Site","Elv":1003.000000,"Lat":-30.838900,"Lon":-70.689100,"Site":"CO03.BHZ.C1.--","UpdateTime":"2017-03-23T19:07:34.000Z","cacheid":"CO03.BHZ.C1.--"}
{"Cmd":"Site","Elv":101.000000,"Lat":-29.918640,"Lon":-71.238410,"Site":"CO05.BHZ.C1.--","UpdateTime":"2017-03-23T19:15:43.000Z","cacheid":"CO05.BHZ.C1.--"}
{"Cmd":"Site","Elv":246.600000,"Lat":-30.673813,"Lon":-71.634987,"Site":"CO06.BHZ.C1.--","UpdateTime":"2017-03-23T19:06:44.000Z","cacheid":"CO06.BHZ.C1.--"}
{"Cmd":"Site","Elv":240.000000,"Lat":-13.956300,"Lon":143.175700,"Site":"COEN.BHZ.AU.--","UpdateTime":"2017-03-23T19:05:15.000Z","cacheid":"COEN.BHZ.AU.--"}
{"Cmd":"Site","Elv":136.000000,"Lat":40.207990,"Lon":-8.412400,"Site":"COI.BHZ.SS.--","UpdateTime":"2017-03-23T19:25:26.000Z","cacheid":"COI.BHZ.SS.--"}
{"Cmd":"Site","Elv":200.000000,"Lat":64.873599,"Lon":-147.861600,"Site":"COLA.BHZ.IU.10","UpdateTime":"2017-03-23T19:06:26.000Z","cacheid":"COLA.BHZ.IU.10"}
{"Cmd":"Site","Elv":380.000000,"Lat":67.226900,"Lon":-150.203800,"Site":"COLD.BHZ.AK.--","UpdateTime":"2017-03-23T19:06:21.000Z","cacheid":"COLD.BHZ.AK.--"}
{"Cmd":"Site","Elv":1482.000000,"Lat":41.958200,"Lon":-119.790500,"Site":"COLR.HHZ.NN.--","UpdateTime":"2017-03-23T19:17:27.000Z","cacheid":"COLR.HHZ.NN.--"}
{"Cmd":"Site","Elv":660.000000,"Lat":37.894300,"Lon":13.303800,"Site":"CORL.HHZ.IV.--","UpdateTime":"2017-03-23T19:21:12.000Z","cacheid":"CORL.HHZ.IV.--"}
{"Cmd":"Site","Elv":115.000000,"Lat":10.719500,"Lon":-84.401900,"Site":"COVE.HHZ.OV.--","UpdateTime":"2017-03-23T19:15:57.000Z","cacheid":"COVE.HHZ.OV.--"}
{"Cmd":"Site","Elv":523.300000,"Lat":46.100300,"Lon":-89.136900,"Site":"COWI.BHZ.US.00","UpdateTime":"2017-03-23T19:30:32.000Z","cacheid":"COWI.BHZ.US.00"}
{"Cmd":"Site","Elv":235.000000,"Lat":-45.572990,"Lon":-72.081390,"Site":"COYC.BHZ.G.10","UpdateTime":"2017-03-23T19:19:27.000Z","cacheid":"COYC.BHZ.G.10"}
{"Cmd":"Site","Elv":275.000000,"Lat":35.450000,"Lon":-84.522000,"Site":"CPCT.HHZ.ET.00","UpdateTime":"2017-03-23T19:10:12.000Z","cacheid":"CPCT.HHZ.ET.00"}
{"Cmd":"Site","Elv":27.000000,"Lat":40.791100,"Lon":-73.960200,"Site":"CPNY.BHZ.LD.--","UpdateTime":"2017-03-23T19:34:26.000Z","cacheid":"CPNY.BHZ.LD.--"}
{"Cmd":"Site","Elv":132.300000,"Lat":-26.330660,"Lon":-57.330950,"Site":"CPUP.BHZ.GT.00","UpdateTime":"2017-03-23T19:22:06.000Z","cacheid":"CPUP.BHZ.GT.00"}
{"Cmd":"Site","Elv":192.000000,"Lat":32.419500,"Lon":-115.305000,"Site":"CPX.HHZ.BC.--","UpdateTime":"2017-03-23T19:15:48.000Z","cacheid":"CPX.HHZ.BC.--"}
{"Cmd":"Site","Elv":57.900000,"Lat":55.468940,"Lon":-133.122970,"Site":"CRAG.BHZ.AT.--","UpdateTime":"2017-03-23T19:22:06.000Z","cacheid":"CRAG.BHZ.AT.--"}
{"Cmd":"Site","Elv":685.000000,"Lat":12.696167,"Lon":-87.050000,"Site":"CRIN.HHZ.NU.--","UpdateTime":"2017-03-23T19:16:40.000Z","cacheid":"CRIN.HHZ.NU.--"}
{"Cmd":"Site","Elv":403.000000,"Lat":36.504737,"Lon":-97.983354,"Site":"CROK.HHZ.OK.--","UpdateTime":"2017-03-23T19:08:48.000Z","cacheid":"CROK.HHZ.OK.--"}
{"Cmd":"Site","Elv":117.900000,"Lat":18.006400,"Lon":-67.109600,"Site":"CRPR.BHZ.PR.--","UpdateTime":"2017-03-23T19:25:52.000Z","cacheid":"CRPR.BHZ.PR.--"}
{"Cmd":"Site","Elv":1392.300000,"Lat":60.752300,"Lon":-143.092600,"Site":"CRQ.BHZ.AK.--","UpdateTime":"2017-03-23T19:13:51.000Z","cacheid":"CRQ.BHZ.AK.--"}
{"Cmd":"Site","Elv":138.000000,"Lat":-46.430000,"Lon":51.861000,"Site":"CRZF.BHZ.G.00","UpdateTime":"2017-03-23T19:13:34.000Z","cacheid":"CRZF.BHZ.G.00"}
{"Cmd":"Site","Elv":396.000000,"Lat":34.961100,"Lon":33.331000,"Site":"CSS.BHZ.GE.--","UpdateTime":"2017-03-23T19:14:38.000Z","cacheid":"CSS.BHZ.GE.--"}
{"Cmd":"Site","Elv":320.000000,"Lat":-20.088200,"Lon":146.254500,"Site":"CTAO.BHZ.IU.10","UpdateTime":"2017-03-23T19:18:09.000Z","cacheid":"CTAO.BHZ.IU.10"}
{"Cmd":"Site","Elv":2147.000000,"Lat":39.207700,"Lon":-120.126000,"Site":"CTC.HHZ.NN.--","UpdateTime":"2017-03-23T19:20:20.000Z","cacheid":"CTC.HHZ.NN.--"}
{"Cmd":"Site","Elv":1507.900000,"Lat":60.964900,"Lon":-141.340100,"Site":"CTG.BHZ.AK.--","UpdateTime":"2017-03-23T19:18:31.000Z","cacheid":"CTG.BHZ.AK.--"}
{"Cmd":"Site","Elv":1180.000000,"Lat":46.048180,"Lon":11.649700,"Site":"CTI.HHZ.IV.--","UpdateTime":"2017-03-23T19:19:19.000Z","cacheid":"CTI.HHZ.IV.--"}
{"Cmd":"Site","Elv":1731.000000,"Lat":40.692500,"Lon":-111.750340,"Site":"CTU.HHZ.UU.01","UpdateTime":"2017-03-23T19:18:59.000Z","cacheid":"CTU.HHZ.UU.01"}
{"Cmd":"Site","Elv":7.000000,"Lat":18.307456,"Lon":-65.282560,"Site":"CUPR.BHZ.PR.--","UpdateTime":"2017-03-23T19:25:50.000Z","cacheid":"CUPR.BHZ.PR.--"}
{"Cmd":"Site","Elv":91.000000,"Lat":36.552237,"Lon":-89.329702,"Site":"CUSSO.HHZ.KY.00","UpdateTime":"2017-03-23T19:09:52.000Z","cacheid":"CUSSO.HHZ.KY.00"}
{"Cmd":"Site","Elv":571.500000,"Lat":62.405800,"Lon":-150.262500,"Site":"CUT.BHZ.AK.--","UpdateTime":"2017-03-23T19:06:58.000Z","cacheid":"CUT.BHZ.AK.--"}
{"Cmd":"Site","Elv":1912.000000,"Lat":38.917600,"Lon":-111.171600,"Site":"CVRU.HHZ.UU.01","UpdateTime":"2017-03-23T19:13:25.000Z","cacheid":"CVRU.HHZ.UU.01"}
{"Cmd":"Site","Elv":3225.000000,"Lat":10.020000,"Lon":-83.759330,"Site":"CVTR.HHZ.TC.--","UpdateTime":"2017-03-23T19:06:32.000Z","cacheid":"CVTR.HHZ.TC.--"}
{"Cmd":"Site","Elv":196.000000,"Lat":-7.729900,"Lon":-72.704900,"Site":"CZSB.HHZ.BR.--","UpdateTime":"2017-03-23T19:15:50.000Z","cacheid":"CZSB.HHZ.BR.--"}
{"Cmd":"Site","Elv":271.000000,"Lat":47.135500,"Lon":-97.016400,"Site":"D32B.BHZ.N4.--","UpdateTime":"2017-03-23T19:13:36.000Z","cacheid":"D32B.BHZ.N4.--"}
{"Cmd":"Site","Elv":271.000000,"Lat":47.060500,"Lon":-88.565700,"Site":"D41A.BHZ.N4.--","UpdateTime":"2017-03-23T19:35:19.000Z","cacheid":"D41A.BHZ.N4.--"}
{"Cmd":"Site","Elv":189.000000,"Lat":47.081900,"Lon":-69.050100,"Site":"D62A.BHZ.N4.--","UpdateTime":"2017-03-23T19:44:51.000Z","cacheid":"D62A.BHZ.N4.--"}
{"Cmd":"Site","Elv":149.000000,"Lat":7.069700,"Lon":125.579100,"Site":"DAV.BHZ.IU.10","UpdateTime":"2017-03-23T19:16:53.000Z","cacheid":"DAV.BHZ.IU.10"}
{"Cmd":"Site","Elv":495.000000,"Lat":47.800600,"Lon":-118.274100,"Site":"DAVN.BHZ.UW.--","UpdateTime":"2017-03-23T19:18:49.000Z","cacheid":"DAVN.BHZ.UW.--"}
{"Cmd":"Site","Elv":808.000000,"Lat":64.065500,"Lon":-139.390900,"Site":"DAWY.BHZ.CN.--","UpdateTime":"2017-03-23T19:08:11.000Z","cacheid":"DAWY.BHZ.CN.--"}
{"Cmd":"Site","Elv":25.000000,"Lat":6.670160,"Lon":-4.856560,"Site":"DBIC.BHZ.GT.00","UpdateTime":"2017-03-23T19:19:46.000Z","cacheid":"DBIC.BHZ.GT.00"}
{"Cmd":"Site","Elv":984.000000,"Lat":43.119010,"Lon":-123.243950,"Site":"DBO.BHZ.UO.--","UpdateTime":"2017-03-23T19:30:57.000Z","cacheid":"DBO.BHZ.UO.--"}
{"Cmd":"Site","Elv":71.000000,"Lat":-45.464713,"Lon":167.153533,"Site":"DCZ.HHZ.NZ.10","UpdateTime":"2017-03-23T19:18:33.000Z","cacheid":"DCZ.HHZ.NZ.10"}
{"Cmd":"Site","Elv":233.000000,"Lat":46.491100,"Lon":-119.059500,"Site":"DDRF.HHZ.UW.--","UpdateTime":"2017-03-23T19:18:42.000Z","cacheid":"DDRF.HHZ.UW.--"}
{"Cmd":"Site","Elv":213.000000,"Lat":44.517690,"Lon":-77.618580,"Site":"DELO.HHZ.WU.--","UpdateTime":"2017-03-23T19:39:02.000Z","cacheid":"DELO.HHZ.WU.--"}
{"Cmd":"Site","Elv":-1.000000,"Lat":-7.412100,"Lon":72.452500,"Site":"DGAR.BHZ.II.10","UpdateTime":"2017-03-23T19:17:44.000Z","cacheid":"DGAR.BHZ.II.10"}
{"Cmd":"Site","Elv":646.000000,"Lat":48.470200,"Lon":-104.195900,"Site":"DGMT.BHZ.US.10","UpdateTime":"2017-03-23T19:09:47.000Z","cacheid":"DGMT.BHZ.US.10"}
{"Cmd":"Site","Elv":125.000000,"Lat":21.263200,"Lon":-157.800600,"Site":"DHH.EHZ.PT.--","UpdateTime":"2017-03-23T19:15:15.000Z","cacheid":"DHH.EHZ.PT.--"}
{"Cmd":"Site","Elv":1611.000000,"Lat":63.075300,"Lon":-147.375900,"Site":"DHY.BHZ.AK.--","UpdateTime":"2017-03-23T19:13:02.000Z","cacheid":"DHY.BHZ.AK.--"}
{"Cmd":"Site","Elv":68.000000,"Lat":53.202500,"Lon":-132.476700,"Site":"DIB.HHZ.CN.--","UpdateTime":"2017-03-23T19:21:42.000Z","cacheid":"DIB.HHZ.CN.--"}
{"Cmd":"Site","Elv":941.400000,"Lat":61.129200,"Lon":-145.774900,"Site":"DIV.BHZ.AK.--","UpdateTime":"2017-03-23T19:15:49.000Z","cacheid":"DIV.BHZ.AK.--"}
{"Cmd":"Site","Elv":997.000000,"Lat":44.098100,"Lon":19.991700,"Site":"DIVS.BHZ.MN.--","UpdateTime":"2017-03-23T19:05:23.000Z","cacheid":"DIVS.BHZ.MN.--"}
{"Cmd":"Site","Elv":978.000000,"Lat":58.437200,"Lon":-130.027200,"Site":"DLBC.BHZ.CN.--","UpdateTime":"2017-03-23T19:20:47.000Z","cacheid":"DLBC.BHZ.CN.--"}
{"Cmd":"Site","Elv":1569.000000,"Lat":45.362500,"Lon":-112.596400,"Site":"DLMT.BHZ.IW.00","UpdateTime":"2017-03-23T19:08:21.000Z","cacheid":"DLMT.BHZ.IW.00"}
{"Cmd":"Site","Elv":1200.000000,"Lat":11.952000,"Lon":108.481500,"Site":"DLV.BHZ.RM.--","UpdateTime":"2017-03-23T19:05:13.000Z","cacheid":"DLV.BHZ.RM.--"}
{"Cmd":"Site","Elv":662.000000,"Lat":63.648200,"Lon":-144.069700,"Site":"DOT.BHZ.AK.--","UpdateTime":"2017-03-23T19:06:42.000Z","cacheid":"DOT.BHZ.AK.--"}
{"Cmd":"Site","Elv":144.000000,"Lat":15.240820,"Lon":145.789090,"Site":"DPS.BHZ.MI.--","UpdateTime":"2017-03-23T19:17:56.000Z","cacheid":"DPS.BHZ.MI.--"}
{"Cmd":"Site","Elv":2627.000000,"Lat":39.483330,"Lon":71.805000,"Site":"DRK.BHZ.KR.--","UpdateTime":"2017-03-23T19:07:50.000Z","cacheid":"DRK.BHZ.KR.--"}
{"Cmd":"Site","Elv":1468.000000,"Lat":9.263170,"Lon":-83.245000,"Site":"DRK0.HHZ.TC.--","UpdateTime":"2017-03-23T19:17:43.000Z","cacheid":"DRK0.HHZ.TC.--"}
{"Cmd":"Site","Elv":238.000000,"Lat":49.256000,"Lon":-57.504200,"Site":"DRLN.BHZ.CN.--","UpdateTime":"2017-03-23T19:44:42.000Z","cacheid":"DRLN.BHZ.CN.--"}
{"Cmd":"Site","Elv":236.000000,"Lat":53.245200,"Lon":-6.376200,"Site":"DSB.BHZ.GE.--","UpdateTime":"2017-03-23T19:28:05.000Z","cacheid":"DSB.BHZ.GE.--"}
{"Cmd":"Site","Elv":1477.000000,"Lat":40.195000,"Lon":-112.813300,"Site":"DUG.BHZ.US.00","UpdateTime":"2017-03-23T19:14:21.000Z","cacheid":"DUG.BHZ.US.00"}
{"Cmd":"Site","Elv":174.000000,"Lat":10.079100,"Lon":-85.493700,"Site":"DUNO.HHZ.OV.--","UpdateTime":"2017-03-23T19:05:34.000Z","cacheid":"DUNO.HHZ.OV.--"}
{"Cmd":"Site","Elv":30.000000,"Lat":28.110300,"Lon":-81.432700,"Site":"DWPF.BHZ.IU.10","UpdateTime":"2017-03-23T19:12:31.000Z","cacheid":"DWPF.BHZ.IU.10"}
{"Cmd":"Site","Elv":878.000000,"Lat":-22.071640,"Lon":166.443770,"Site":"DZM.BHZ.G.00","UpdateTime":"2017-03-23T19:22:04.000Z","cacheid":"DZM.BHZ.G.00"}
{"Cmd":"Site","Elv":704.000000,"Lat":46.574800,"Lon":-100.693400,"Site":"E28B.BHZ.N4.--","UpdateTime":"2017-03-23T19:12:38.000Z","cacheid":"E28B.BHZ.N4.--"}
{"Cmd":"Site","Elv":341.000000,"Lat":46.605800,"Lon":-91.554200,"Site":"E38A.BHZ.N4.--","UpdateTime":"2017-03-23T19:05:31.000Z","cacheid":"E38A.BHZ.N4.--"}
{"Cmd":"Site","Elv":303.000000,"Lat":46.375800,"Lon":-86.995400,"Site":"E43A.BHZ.N4.--","UpdateTime":"2017-03-23T19:08:29.000Z","cacheid":"E43A.BHZ.N4.--"}
{"Cmd":"Site","Elv":269.000000,"Lat":46.366500,"Lon":-84.306200,"Site":"E46A.BHZ.N4.--","UpdateTime":"2017-03-23T19:44:23.000Z","cacheid":"E46A.BHZ.N4.--"}
{"Cmd":"Site","Elv":356.000000,"Lat":46.620100,"Lon":-69.522700,"Site":"E62A.BHZ.N4.--","UpdateTime":"2017-03-23T19:44:18.000Z","cacheid":"E62A.BHZ.N4.--"}
{"Cmd":"Site","Elv":238.000000,"Lat":46.422000,"Lon":-68.462300,"Site":"E63A.BHZ.N4.--","UpdateTime":"2017-03-23T19:17:06.000Z","cacheid":"E63A.BHZ.N4.--"}
{"Cmd":"Site","Elv":330.000000,"Lat":48.216313,"Lon":7.158961,"Site":"ECH.BHZ.G.00","UpdateTime":"2017-03-23T19:19:22.000Z","cacheid":"ECH.BHZ.G.00"}
{"Cmd":"Site","Elv":2086.000000,"Lat":43.054000,"Lon":-111.371000,"Site":"ECRI.EHZ.IE.--","UpdateTime":"2017-03-23T19:19:16.000Z","cacheid":"ECRI.EHZ.IE.--"}
{"Cmd":"Site","Elv":350.600000,"Lat":43.733700,"Lon":-96.614100,"Site":"ECSD.BHZ.US.10","UpdateTime":"2017-03-23T19:09:42.000Z","cacheid":"ECSD.BHZ.US.10"}
{"Cmd":"Site","Elv":727.000000,"Lat":53.223000,"Lon":-113.349700,"Site":"EDM.HHZ.CN.--","UpdateTime":"2017-03-23T19:19:57.000Z","cacheid":"EDM.HHZ.CN.--"}
{"Cmd":"Site","Elv":106.800000,"Lat":-51.675300,"Lon":-58.063700,"Site":"EFI.BHZ.II.10","UpdateTime":"2017-03-23T19:43:17.000Z","cacheid":"EFI.BHZ.II.10"}
{"Cmd":"Site","Elv":1055.000000,"Lat":48.024000,"Lon":-109.754700,"Site":"EGMT.BHZ.US.00","UpdateTime":"2017-03-23T19:08:25.000Z","cacheid":"EGMT.BHZ.US.00"}
{"Cmd":"Site","Elv":216.000000,"Lat":-25.369100,"Lon":151.081700,"Site":"EIDS.BHZ.AU.--","UpdateTime":"2017-03-23T19:13:33.000Z","cacheid":"EIDS.BHZ.AU.--"}
{"Cmd":"Site","Elv":2210.000000,"Lat":40.744800,"Lon":-115.238800,"Site":"ELK.BHZ.US.00","UpdateTime":"2017-03-23T19:21:33.000Z","cacheid":"ELK.BHZ.US.00"}
{"Cmd":"Site","Elv":1230.000000,"Lat":36.748300,"Lon":29.908500,"Site":"ELL.BHZ.KO.--","UpdateTime":"2017-03-23T19:20:16.000Z","cacheid":"ELL.BHZ.KO.--"}
{"Cmd":"Site","Elv":2134.200000,"Lat":38.974400,"Lon":-120.102900,"Site":"EMB.HHZ.NN.--","UpdateTime":"2017-03-23T19:05:29.000Z","cacheid":"EMB.HHZ.NN.--"}
{"Cmd":"Site","Elv":35.000000,"Lat":44.707500,"Lon":-67.457300,"Site":"EMMW.HHZ.NE.00","UpdateTime":"2017-03-23T19:44:31.000Z","cacheid":"EMMW.HHZ.NE.00"}
{"Cmd":"Site","Elv":7.400000,"Lat":18.477050,"Lon":-66.529549,"Site":"EMPR.BHZ.PR.--","UpdateTime":"2017-03-23T19:25:51.000Z","cacheid":"EMPR.BHZ.PR.--"}
{"Cmd":"Site","Elv":500.000000,"Lat":30.276200,"Lon":109.494400,"Site":"ENH.BHZ.IC.00","UpdateTime":"2017-03-23T19:09:56.000Z","cacheid":"ENH.BHZ.IC.00"}
{"Cmd":"Site","Elv":715.600000,"Lat":66.370100,"Lon":-136.719100,"Site":"EPYK.BHZ.TA.--","UpdateTime":"2017-03-23T19:22:42.000Z","cacheid":"EPYK.BHZ.TA.--"}
{"Cmd":"Site","Elv":40.000000,"Lat":42.015000,"Lon":143.157200,"Site":"ERM.BHZ.II.10","UpdateTime":"2017-03-23T19:18:13.000Z","cacheid":"ERM.BHZ.II.10"}
{"Cmd":"Site","Elv":306.300000,"Lat":42.117500,"Lon":-79.989100,"Site":"ERPA.BHZ.US.00","UpdateTime":"2017-03-23T19:36:48.000Z","cacheid":"ERPA.BHZ.US.00"}
{"Cmd":"Site","Elv":724.000000,"Lat":39.675500,"Lon":-3.961700,"Site":"ESBB.BHZ.IM.--","UpdateTime":"2017-03-23T19:11:38.000Z","cacheid":"ESBB.BHZ.IM.--"}
{"Cmd":"Site","Elv":242.000000,"Lat":55.316700,"Lon":-3.205000,"Site":"ESK.BHZ.II.10","UpdateTime":"2017-03-23T19:43:42.000Z","cacheid":"ESK.BHZ.II.10"}
{"Cmd":"Site","Elv":45.000000,"Lat":12.195000,"Lon":-84.300307,"Site":"ESPN.HHZ.NU.--","UpdateTime":"2017-03-23T19:12:53.000Z","cacheid":"ESPN.HHZ.NU.--"}
{"Cmd":"Site","Elv":196.000000,"Lat":-9.816840,"Lon":-66.213680,"Site":"ETMB.HHZ.BR.--","UpdateTime":"2017-03-23T19:16:43.000Z","cacheid":"ETMB.HHZ.BR.--"}
{"Cmd":"Site","Elv":623.000000,"Lat":80.053200,"Lon":-86.415800,"Site":"EUNU.BHZ.CN.--","UpdateTime":"2017-03-23T19:10:38.000Z","cacheid":"EUNU.BHZ.CN.--"}
{"Cmd":"Site","Elv":475.000000,"Lat":47.946200,"Lon":-91.495300,"Site":"EYMN.BHZ.US.10","UpdateTime":"2017-03-23T19:20:32.000Z","cacheid":"EYMN.BHZ.US.10"}
{"Cmd":"Site","Elv":314.000000,"Lat":45.839800,"Lon":-96.292900,"Site":"F33B.BHZ.N4.--","UpdateTime":"2017-03-23T19:10:01.000Z","cacheid":"F33B.BHZ.N4.--"}
{"Cmd":"Site","Elv":349.000000,"Lat":45.861800,"Lon":-93.524100,"Site":"F36B.BHZ.N4.--","UpdateTime":"2017-03-23T19:19:09.000Z","cacheid":"F36B.BHZ.N4.--"}
{"Cmd":"Site","Elv":358.000000,"Lat":45.758700,"Lon":-88.134700,"Site":"F42A.BHZ.N4.--","UpdateTime":"2017-03-23T19:05:18.000Z","cacheid":"F42A.BHZ.N4.--"}
{"Cmd":"Site","Elv":331.000000,"Lat":45.896800,"Lon":-69.966400,"Site":"F62A.BHZ.N4.--","UpdateTime":"2017-03-23T19:37:52.000Z","cacheid":"F62A.BHZ.N4.--"}
{"Cmd":"Site","Elv":386.000000,"Lat":45.703000,"Lon":-69.102900,"Site":"F63A.BHZ.N4.--","UpdateTime":"2017-03-23T19:20:46.000Z","cacheid":"F63A.BHZ.N4.--"}
{"Cmd":"Site","Elv":179.000000,"Lat":45.863300,"Lon":-68.349600,"Site":"F64A.BHZ.N4.--","UpdateTime":"2017-03-23T19:27:55.000Z","cacheid":"F64A.BHZ.N4.--"}
{"Cmd":"Site","Elv":136.000000,"Lat":-2.919250,"Lon":132.248890,"Site":"FAKI.BHZ.GE.--","UpdateTime":"2017-03-23T19:13:18.000Z","cacheid":"FAKI.BHZ.GE.--"}
{"Cmd":"Site","Elv":60.600000,"Lat":54.856400,"Lon":-163.417600,"Site":"FALS.BHZ.AK.--","UpdateTime":"2017-03-23T19:21:01.000Z","cacheid":"FALS.BHZ.AK.--"}
{"Cmd":"Site","Elv":190.000000,"Lat":35.890000,"Lon":-92.124000,"Site":"FCAR.HHZ.AG.00","UpdateTime":"2017-03-23T19:07:37.000Z","cacheid":"FCAR.HHZ.AG.00"}
{"Cmd":"Site","Elv":39.000000,"Lat":58.761600,"Lon":-94.086600,"Site":"FCC.BHZ.CN.--","UpdateTime":"2017-03-23T19:08:01.000Z","cacheid":"FCC.BHZ.CN.--"}
{"Cmd":"Site","Elv":467.000000,"Lat":14.734971,"Lon":-61.146311,"Site":"FDF.BHZ.G.00","UpdateTime":"2017-03-23T19:43:48.000Z","cacheid":"FDF.BHZ.G.00"}
{"Cmd":"Site","Elv":338.000000,"Lat":54.725000,"Lon":-101.978300,"Site":"FFC.BHZ.II.10","UpdateTime":"2017-03-23T19:18:58.000Z","cacheid":"FFC.BHZ.II.10"}
{"Cmd":"Site","Elv":131.000000,"Lat":43.470100,"Lon":-71.653700,"Site":"FFD.HHZ.NE.00","UpdateTime":"2017-03-23T19:11:52.000Z","cacheid":"FFD.HHZ.NE.00"}
{"Cmd":"Site","Elv":128.100000,"Lat":38.381345,"Lon":-88.389648,"Site":"FFIL.BHZ.NM.00","UpdateTime":"2017-03-23T19:09:48.000Z","cacheid":"FFIL.BHZ.NM.00"}
{"Cmd":"Site","Elv":138.000000,"Lat":61.444500,"Lon":26.079300,"Site":"FIA1.BHZ.IM.--","UpdateTime":"2017-03-23T19:21:21.000Z","cacheid":"FIA1.BHZ.IM.--"}
{"Cmd":"Site","Elv":500.000000,"Lat":60.727700,"Lon":-146.598700,"Site":"FID.BHZ.AK.--","UpdateTime":"2017-03-23T19:13:00.000Z","cacheid":"FID.BHZ.AK.--"}
{"Cmd":"Site","Elv":62.000000,"Lat":61.142600,"Lon":-150.216400,"Site":"FIRE.BHZ.AK.--","UpdateTime":"2017-03-23T19:12:13.000Z","cacheid":"FIRE.BHZ.AK.--"}
{"Cmd":"Site","Elv":2078.000000,"Lat":44.082700,"Lon":-110.699300,"Site":"FLWY.BHZ.IW.00","UpdateTime":"2017-03-23T19:09:45.000Z","cacheid":"FLWY.BHZ.IW.00"}
{"Cmd":"Site","Elv":750.000000,"Lat":40.781800,"Lon":21.383500,"Site":"FNA.HHZ.HT.--","UpdateTime":"2017-03-23T19:17:50.000Z","cacheid":"FNA.HHZ.HT.--"}
{"Cmd":"Site","Elv":48.000000,"Lat":47.947500,"Lon":-124.566200,"Site":"FORK.BHZ.UW.--","UpdateTime":"2017-03-23T19:06:16.000Z","cacheid":"FORK.BHZ.UW.--"}
{"Cmd":"Site","Elv":165.000000,"Lat":-30.779000,"Lon":128.059000,"Site":"FORT.BHZ.AU.--","UpdateTime":"2017-03-23T19:18:20.000Z","cacheid":"FORT.BHZ.AU.--"}
{"Cmd":"Site","Elv":54.000000,"Lat":-43.532099,"Lon":169.815480,"Site":"FOZ.HHZ.NZ.10","UpdateTime":"2017-03-23T19:21:30.000Z","cacheid":"FOZ.HHZ.NZ.10"}
{"Cmd":"Site","Elv":556.000000,"Lat":34.540000,"Lon":-85.611000,"Site":"FPAL.HHZ.ET.00","UpdateTime":"2017-03-23T19:10:07.000Z","cacheid":"FPAL.HHZ.ET.00"}
{"Cmd":"Site","Elv":242.000000,"Lat":44.835000,"Lon":-73.588300,"Site":"FRNY.BHZ.LD.--","UpdateTime":"2017-03-23T19:31:57.000Z","cacheid":"FRNY.BHZ.LD.--"}
{"Cmd":"Site","Elv":926.000000,"Lat":42.812330,"Lon":74.628400,"Site":"FRU1.BHZ.KR.--","UpdateTime":"2017-03-23T19:20:01.000Z","cacheid":"FRU1.BHZ.KR.--"}
{"Cmd":"Site","Elv":19.000000,"Lat":-8.525900,"Lon":179.196600,"Site":"FUNA.BHZ.IU.10","UpdateTime":"2017-03-23T19:21:11.000Z","cacheid":"FUNA.BHZ.IU.10"}
{"Cmd":"Site","Elv":2565.000000,"Lat":8.895200,"Lon":38.679800,"Site":"FURI.BHZ.IU.10","UpdateTime":"2017-03-23T19:13:41.000Z","cacheid":"FURI.BHZ.IU.10"}
{"Cmd":"Site","Elv":137.000000,"Lat":37.981200,"Lon":-90.427300,"Site":"FVM.BHZ.NM.--","UpdateTime":"2017-03-23T19:09:14.000Z","cacheid":"FVM.BHZ.NM.--"}
{"Cmd":"Site","Elv":2254.000000,"Lat":43.638100,"Lon":-111.026800,"Site":"FXWY.BHZ.IW.00","UpdateTime":"2017-03-23T19:11:54.000Z","cacheid":"FXWY.BHZ.IW.00"}
{"Cmd":"Site","Elv":472.000000,"Lat":45.268400,"Lon":-90.200600,"Site":"G40A.BHZ.N4.--","UpdateTime":"2017-03-23T19:10:18.000Z","cacheid":"G40A.BHZ.N4.--"}
{"Cmd":"Site","Elv":284.000000,"Lat":45.040400,"Lon":-85.657100,"Site":"G45A.BHZ.N4.--","UpdateTime":"2017-03-23T19:42:32.000Z","cacheid":"G45A.BHZ.N4.--"}
{"Cmd":"Site","Elv":426.000000,"Lat":45.218600,"Lon":-70.531900,"Site":"G62A.BHZ.N4.--","UpdateTime":"2017-03-23T19:20:26.000Z","cacheid":"G62A.BHZ.N4.--"}
{"Cmd":"Site","Elv":78.000000,"Lat":45.200200,"Lon":-67.563200,"Site":"G65A.BHZ.N4.--","UpdateTime":"2017-03-23T19:22:01.000Z","cacheid":"G65A.BHZ.N4.--"}
{"Cmd":"Site","Elv":1305.000000,"Lat":39.000000,"Lon":70.316000,"Site":"GARM.HHZ.TJ.--","UpdateTime":"2017-03-23T19:05:56.000Z","cacheid":"GARM.HHZ.TJ.--"}
{"Cmd":"Site","Elv":992.000000,"Lat":37.172200,"Lon":37.209700,"Site":"GAZ.BHZ.KO.--","UpdateTime":"2017-03-23T19:12:03.000Z","cacheid":"GAZ.BHZ.KO.--"}
{"Cmd":"Site","Elv":38.000000,"Lat":45.407700,"Lon":-61.512800,"Site":"GBN.HHZ.CN.--","UpdateTime":"2017-03-23T19:16:32.000Z","cacheid":"GBN.HHZ.CN.--"}
{"Cmd":"Site","Elv":354.000000,"Lat":36.851500,"Lon":-97.859590,"Site":"GC02.EHZ.OK.--","UpdateTime":"2017-03-23T19:08:48.000Z","cacheid":"GC02.EHZ.OK.--"}
{"Cmd":"Site","Elv":1530.000000,"Lat":45.791170,"Lon":-109.667200,"Site":"GCMT.EHZ.MB.--","UpdateTime":"2017-03-23T19:11:30.000Z","cacheid":"GCMT.EHZ.MB.--"}
{"Cmd":"Site","Elv":115.000000,"Lat":18.309000,"Lon":-66.083600,"Site":"GCPR.BHZ.PR.--","UpdateTime":"2017-03-23T19:25:50.000Z","cacheid":"GCPR.BHZ.PR.--"}
{"Cmd":"Site","Elv":939.000000,"Lat":38.807968,"Lon":-122.795303,"Site":"GDXB.HHZ.NC.--","UpdateTime":"2017-03-23T19:14:49.000Z","cacheid":"GDXB.HHZ.NC.--"}
{"Cmd":"Site","Elv":1132.000000,"Lat":48.845100,"Lon":13.701600,"Site":"GEC2A.HHZ.IM.--","UpdateTime":"2017-03-23T19:17:36.000Z","cacheid":"GEC2A.HHZ.IM.--"}
{"Cmd":"Site","Elv":30.000000,"Lat":45.118400,"Lon":-66.842000,"Site":"GGN.BHZ.CN.--","UpdateTime":"2017-03-23T19:44:53.000Z","cacheid":"GGN.BHZ.CN.--"}
{"Cmd":"Site","Elv":-61.000000,"Lat":31.303410,"Lon":35.566480,"Site":"GHAJ.BHZ.GE.--","UpdateTime":"2017-03-23T19:22:08.000Z","cacheid":"GHAJ.BHZ.GE.--"}
{"Cmd":"Site","Elv":1032.000000,"Lat":61.771000,"Lon":-148.926000,"Site":"GHO.BHZ.AK.--","UpdateTime":"2017-03-23T19:16:47.000Z","cacheid":"GHO.BHZ.AK.--"}
{"Cmd":"Site","Elv":109.000000,"Lat":-22.643000,"Lon":114.234000,"Site":"GIRL.BHZ.AU.--","UpdateTime":"2017-03-23T19:18:20.000Z","cacheid":"GIRL.BHZ.AU.--"}
{"Cmd":"Site","Elv":610.000000,"Lat":33.051490,"Lon":-114.827060,"Site":"GLA.BHZ.CI.--","UpdateTime":"2017-03-23T19:19:44.000Z","cacheid":"GLA.BHZ.CI.--"}
{"Cmd":"Site","Elv":120.000000,"Lat":36.269000,"Lon":-89.288000,"Site":"GLAT.HHZ.NM.00","UpdateTime":"2017-03-23T19:09:44.000Z","cacheid":"GLAT.HHZ.NM.00"}
{"Cmd":"Site","Elv":854.900000,"Lat":61.441700,"Lon":-143.812300,"Site":"GLB.BHZ.AK.--","UpdateTime":"2017-03-23T19:12:17.000Z","cacheid":"GLB.BHZ.AK.--"}
{"Cmd":"Site","Elv":430.000000,"Lat":60.879200,"Lon":-147.095900,"Site":"GLI.BHZ.AK.--","UpdateTime":"2017-03-23T19:12:59.000Z","cacheid":"GLI.BHZ.AK.--"}
{"Cmd":"Site","Elv":387.000000,"Lat":44.824500,"Lon":-84.617500,"Site":"GLMI.BHZ.US.00","UpdateTime":"2017-03-23T19:44:02.000Z","cacheid":"GLMI.BHZ.US.00"}
{"Cmd":"Site","Elv":71.000000,"Lat":35.965000,"Lon":-90.018000,"Site":"GNAR.HHZ.NM.00","UpdateTime":"2017-03-23T19:09:40.000Z","cacheid":"GNAR.HHZ.NM.00"}
{"Cmd":"Site","Elv":1509.000000,"Lat":40.148000,"Lon":44.741000,"Site":"GNI.BHZ.IU.10","UpdateTime":"2017-03-23T19:18:55.000Z","cacheid":"GNI.BHZ.IU.10"}
{"Cmd":"Site","Elv":730.000000,"Lat":-27.593700,"Lon":-70.234700,"Site":"GO03.BHZ.C.--","UpdateTime":"2017-03-23T19:12:17.000Z","cacheid":"GO03.BHZ.C.--"}
{"Cmd":"Site","Elv":2076.000000,"Lat":-30.172700,"Lon":-70.799300,"Site":"GO04.BHZ.C.--","UpdateTime":"2017-03-23T19:16:08.000Z","cacheid":"GO04.BHZ.C.--"}
{"Cmd":"Site","Elv":488.000000,"Lat":-35.009900,"Lon":-71.930300,"Site":"GO05.BHZ.C.--","UpdateTime":"2017-03-23T19:12:15.000Z","cacheid":"GO05.BHZ.C.--"}
{"Cmd":"Site","Elv":178.000000,"Lat":-43.114200,"Lon":-73.664400,"Site":"GO07.BHZ.C.--","UpdateTime":"2017-03-23T19:14:08.000Z","cacheid":"GO07.BHZ.C.--"}
{"Cmd":"Site","Elv":372.000000,"Lat":-51.270700,"Lon":-72.338100,"Site":"GO09.BHZ.C.--","UpdateTime":"2017-03-23T19:21:55.000Z","cacheid":"GO09.BHZ.C.--"}
{"Cmd":"Site","Elv":652.000000,"Lat":-53.154600,"Lon":-71.049800,"Site":"GO10.BHZ.C.--","UpdateTime":"2017-03-23T19:24:56.000Z","cacheid":"GO10.BHZ.C.--"}
{"Cmd":"Site","Elv":-16.100000,"Lat":33.411200,"Lon":-83.466600,"Site":"GOGA.BHZ.US.10","UpdateTime":"2017-03-23T19:10:23.000Z","cacheid":"GOGA.BHZ.US.10"}
{"Cmd":"Site","Elv":348.000000,"Lat":36.785632,"Lon":-97.947062,"Site":"GORE.HHZ.OK.--","UpdateTime":"2017-03-23T19:12:51.000Z","cacheid":"GORE.HHZ.OK.--"}
{"Cmd":"Site","Elv":499.500000,"Lat":49.691888,"Lon":11.221720,"Site":"GRA1.BHZ.GR.--","UpdateTime":"2017-03-23T19:12:39.000Z","cacheid":"GRA1.BHZ.GR.--"}
{"Cmd":"Site","Elv":384.000000,"Lat":49.690900,"Lon":11.220300,"Site":"GRFO.HHZ.IU.--","UpdateTime":"2017-03-23T19:12:37.000Z","cacheid":"GRFO.HHZ.IU.--"}
{"Cmd":"Site","Elv":195.000000,"Lat":12.132400,"Lon":-61.654000,"Site":"GRGR.BHZ.CU.00","UpdateTime":"2017-03-23T19:31:32.000Z","cacheid":"GRGR.BHZ.CU.00"}
{"Cmd":"Site","Elv":461.000000,"Lat":53.846800,"Lon":-129.957500,"Site":"GRNB.HHZ.CN.--","UpdateTime":"2017-03-23T19:18:52.000Z","cacheid":"GRNB.HHZ.CN.--"}
{"Cmd":"Site","Elv":2116.000000,"Lat":60.731500,"Lon":-141.755800,"Site":"GRNC.BHZ.AK.--","UpdateTime":"2017-03-23T19:34:30.000Z","cacheid":"GRNC.BHZ.AK.--"}
{"Cmd":"Site","Elv":12.000000,"Lat":21.511490,"Lon":-71.132700,"Site":"GRTK.BHZ.CU.00","UpdateTime":"2017-03-23T19:43:48.000Z","cacheid":"GRTK.BHZ.CU.00"}
{"Cmd":"Site","Elv":1421.000000,"Lat":40.445900,"Lon":-104.617000,"Site":"GRWE.EHZ.XU.00","UpdateTime":"2017-03-23T19:20:29.000Z","cacheid":"GRWE.EHZ.XU.00"}
{"Cmd":"Site","Elv":1000.000000,"Lat":35.301770,"Lon":-116.805740,"Site":"GSC.BHZ.CI.--","UpdateTime":"2017-03-23T19:07:35.000Z","cacheid":"GSC.BHZ.CI.--"}
{"Cmd":"Site","Elv":107.000000,"Lat":1.303900,"Lon":97.575500,"Site":"GSI.BHZ.GE.--","UpdateTime":"2017-03-23T19:19:20.000Z","cacheid":"GSI.BHZ.GE.--"}
{"Cmd":"Site","Elv":536.000000,"Lat":52.093200,"Lon":-176.061100,"Site":"GSTR.EHZ.AV.--","UpdateTime":"2017-03-23T19:14:50.000Z","cacheid":"GSTR.EHZ.AV.--"}
{"Cmd":"Site","Elv":79.200000,"Lat":19.926800,"Lon":-75.110800,"Site":"GTBY.BHZ.CU.00","UpdateTime":"2017-03-23T19:43:47.000Z","cacheid":"GTBY.BHZ.CU.00"}
{"Cmd":"Site","Elv":170.000000,"Lat":13.589300,"Lon":144.868400,"Site":"GUMO.BHZ.IU.10","UpdateTime":"2017-03-23T19:17:54.000Z","cacheid":"GUMO.BHZ.IU.10"}
{"Cmd":"Site","Elv":1388.000000,"Lat":38.550900,"Lon":42.032220,"Site":"GURO.HHZ.KO.--","UpdateTime":"2017-03-23T19:06:30.000Z","cacheid":"GURO.HHZ.KO.--"}
{"Cmd":"Site","Elv":10.000000,"Lat":32.302900,"Lon":-115.076000,"Site":"GUVIX.HHZ.BC.--","UpdateTime":"2017-03-23T19:20:41.000Z","cacheid":"GUVIX.HHZ.BC.--"}
{"Cmd":"Site","Elv":1538.000000,"Lat":36.186000,"Lon":-116.669800,"Site":"GWY.HHZ.NN.--","UpdateTime":"2017-03-23T19:15:41.000Z","cacheid":"GWY.HHZ.NN.--"}
{"Cmd":"Site","Elv":610.000000,"Lat":37.929550,"Lon":58.117060,"Site":"GYA0B.BHZ.IM.--","UpdateTime":"2017-03-23T19:19:17.000Z","cacheid":"GYA0B.BHZ.IM.--"}
{"Cmd":"Site","Elv":2400.000000,"Lat":44.395100,"Lon":-110.576200,"Site":"H17A.BHZ.TA.--","UpdateTime":"2017-03-23T19:08:33.000Z","cacheid":"H17A.BHZ.TA.--"}
{"Cmd":"Site","Elv":518.000000,"Lat":65.657100,"Lon":-152.805000,"Site":"H21K.BHZ.TA.--","UpdateTime":"2017-03-23T19:11:16.000Z","cacheid":"H21K.BHZ.TA.--"}
{"Cmd":"Site","Elv":812.000000,"Lat":65.837100,"Lon":-147.878100,"Site":"H24K.BHZ.TA.--","UpdateTime":"2017-03-23T19:05:50.000Z","cacheid":"H24K.BHZ.TA.--"}
{"Cmd":"Site","Elv":274.000000,"Lat":44.469700,"Lon":-87.770400,"Site":"H43A.BHZ.N4.--","UpdateTime":"2017-03-23T19:10:39.000Z","cacheid":"H43A.BHZ.N4.--"}
{"Cmd":"Site","Elv":381.000000,"Lat":44.574300,"Lon":-71.155900,"Site":"H62A.BHZ.N4.--","UpdateTime":"2017-03-23T19:43:21.000Z","cacheid":"H62A.BHZ.N4.--"}
{"Cmd":"Site","Elv":65.000000,"Lat":44.637800,"Lon":-63.591200,"Site":"HAL.HHZ.CN.--","UpdateTime":"2017-03-23T19:21:56.000Z","cacheid":"HAL.HHZ.CN.--"}
{"Cmd":"Site","Elv":85.000000,"Lat":35.911000,"Lon":-89.340000,"Site":"HALT.HHZ.NM.00","UpdateTime":"2017-03-23T19:10:41.000Z","cacheid":"HALT.HHZ.NM.00"}
{"Cmd":"Site","Elv":1097.000000,"Lat":19.423037,"Lon":-155.260940,"Site":"HAT.HHZ.HV.--","UpdateTime":"2017-03-23T19:07:16.000Z","cacheid":"HAT.HHZ.HV.--"}
{"Cmd":"Site","Elv":438.000000,"Lat":18.787900,"Lon":-69.381100,"Site":"HATO.EHZ.DR.--","UpdateTime":"2017-03-23T19:17:12.000Z","cacheid":"HATO.EHZ.DR.--"}
{"Cmd":"Site","Elv":-173.000000,"Lat":33.360000,"Lon":-81.610000,"Site":"HAW.HHZ.CO.00","UpdateTime":"2017-03-23T19:41:37.000Z","cacheid":"HAW.HHZ.CO.00"}
{"Cmd":"Site","Elv":364.000000,"Lat":46.392500,"Lon":-119.532700,"Site":"HAWA.BHZ.US.00","UpdateTime":"2017-03-23T19:18:43.000Z","cacheid":"HAWA.BHZ.US.00"}
{"Cmd":"Site","Elv":74.000000,"Lat":35.555000,"Lon":-90.657000,"Site":"HBAR.HHZ.NM.00","UpdateTime":"2017-03-23T19:12:46.000Z","cacheid":"HBAR.HHZ.NM.00"}
{"Cmd":"Site","Elv":427.000000,"Lat":64.409500,"Lon":-146.947700,"Site":"HDA.BHZ.AK.--","UpdateTime":"2017-03-23T19:07:30.000Z","cacheid":"HDA.BHZ.AK.--"}
{"Cmd":"Site","Elv":66.000000,"Lat":35.153000,"Lon":-90.058000,"Site":"HDBT.HHZ.NM.00","UpdateTime":"2017-03-23T19:20:15.000Z","cacheid":"HDBT.HHZ.NM.00"}
{"Cmd":"Site","Elv":1175.700000,"Lat":10.002070,"Lon":-84.111390,"Site":"HDC.BHZ.G.00","UpdateTime":"2017-03-23T19:15:58.000Z","cacheid":"HDC.BHZ.G.00"}
{"Cmd":"Site","Elv":219.400000,"Lat":40.555900,"Lon":-89.294000,"Site":"HDIL.BHZ.US.00","UpdateTime":"2017-03-23T19:09:49.000Z","cacheid":"HDIL.BHZ.US.00"}
{"Cmd":"Site","Elv":2788.000000,"Lat":6.234100,"Lon":-75.547700,"Site":"HEL.BHZ.CM.01","UpdateTime":"2017-03-23T19:20:26.000Z","cacheid":"HEL.BHZ.CM.01"}
{"Cmd":"Site","Elv":88.000000,"Lat":36.716000,"Lon":-89.472000,"Site":"HENM.HHZ.NM.00","UpdateTime":"2017-03-23T19:20:02.000Z","cacheid":"HENM.HHZ.NM.00"}
{"Cmd":"Site","Elv":328.000000,"Lat":52.293100,"Lon":-131.197600,"Site":"HG4B.HHZ.CN.--","UpdateTime":"2017-03-23T19:44:48.000Z","cacheid":"HG4B.HHZ.CN.--"}
{"Cmd":"Site","Elv":421.000000,"Lat":36.282000,"Lon":-93.940000,"Site":"HHAR.HHZ.AG.00","UpdateTime":"2017-03-23T19:09:02.000Z","cacheid":"HHAR.HHZ.AG.00"}
{"Cmd":"Site","Elv":620.000000,"Lat":49.270400,"Lon":119.741400,"Site":"HIA.HHZ.IC.10","UpdateTime":"2017-03-23T19:16:59.000Z","cacheid":"HIA.HHZ.IC.10"}
{"Cmd":"Site","Elv":141.000000,"Lat":36.541000,"Lon":-89.229000,"Site":"HICK.HHZ.NM.00","UpdateTime":"2017-03-23T19:09:43.000Z","cacheid":"HICK.HHZ.NM.00"}
{"Cmd":"Site","Elv":35.000000,"Lat":19.703300,"Lon":-155.080600,"Site":"HILB.HHZ.PT.--","UpdateTime":"2017-03-23T19:08:53.000Z","cacheid":"HILB.HHZ.PT.--"}
{"Cmd":"Site","Elv":237.000000,"Lat":-38.512929,"Lon":174.855686,"Site":"HIZ.HHZ.NZ.10","UpdateTime":"2017-03-23T19:17:33.000Z","cacheid":"HIZ.HHZ.NZ.10"}
{"Cmd":"Site","Elv":-863.000000,"Lat":29.961800,"Lon":-95.838400,"Site":"HKT.BHZ.IU.10","UpdateTime":"2017-03-23T19:20:14.000Z","cacheid":"HKT.BHZ.IU.10"}
{"Cmd":"Site","Elv":1772.000000,"Lat":43.562500,"Lon":-114.413800,"Site":"HLID.BHZ.US.00","UpdateTime":"2017-03-23T19:08:27.000Z","cacheid":"HLID.BHZ.US.00"}
{"Cmd":"Site","Elv":724.000000,"Lat":19.296253,"Lon":-155.307482,"Site":"HLPD.HHZ.HV.--","UpdateTime":"2017-03-23T19:07:21.000Z","cacheid":"HLPD.HHZ.HV.--"}
{"Cmd":"Site","Elv":629.000000,"Lat":60.335100,"Lon":-144.262300,"Site":"HMT.BHZ.AK.--","UpdateTime":"2017-03-23T19:21:13.000Z","cacheid":"HMT.BHZ.AK.--"}
{"Cmd":"Site","Elv":180.000000,"Lat":43.705100,"Lon":-72.286500,"Site":"HNH.HHZ.NE.00","UpdateTime":"2017-03-23T19:31:40.000Z","cacheid":"HNH.HHZ.NE.00"}
{"Cmd":"Site","Elv":99.000000,"Lat":-9.438700,"Lon":159.947500,"Site":"HNR.BHZ.IU.10","UpdateTime":"2017-03-23T19:16:06.000Z","cacheid":"HNR.BHZ.IU.10"}
{"Cmd":"Site","Elv":151.000000,"Lat":34.231500,"Lon":-82.258600,"Site":"HODGE.HHZ.CO.00","UpdateTime":"2017-03-23T19:31:17.000Z","cacheid":"HODGE.HHZ.CO.00"}
{"Cmd":"Site","Elv":547.000000,"Lat":50.640200,"Lon":-128.133100,"Site":"HOLB.HHZ.CN.--","UpdateTime":"2017-03-23T19:20:40.000Z","cacheid":"HOLB.HHZ.CN.--"}
{"Cmd":"Site","Elv":221.000000,"Lat":59.657200,"Lon":-151.651500,"Site":"HOM.BHZ.AK.--","UpdateTime":"2017-03-23T19:12:20.000Z","cacheid":"HOM.BHZ.AK.--"}
{"Cmd":"Site","Elv":20.000000,"Lat":-54.283600,"Lon":-36.487900,"Site":"HOPE.BHZ.II.10","UpdateTime":"2017-03-23T19:16:42.000Z","cacheid":"HOPE.BHZ.II.10"}
{"Cmd":"Site","Elv":296.100000,"Lat":38.993490,"Lon":-123.072340,"Site":"HOPS.BHZ.BK.00","UpdateTime":"2017-03-23T19:15:44.000Z","cacheid":"HOPS.BHZ.BK.00"}
{"Cmd":"Site","Elv":753.000000,"Lat":20.030300,"Lon":-155.697300,"Site":"HPAH.HHZ.PT.--","UpdateTime":"2017-03-23T19:06:38.000Z","cacheid":"HPAH.HHZ.PT.--"}
{"Cmd":"Site","Elv":1786.000000,"Lat":26.936807,"Lon":-105.664022,"Site":"HPIG.BHZ.MX.--","UpdateTime":"2017-03-23T19:12:41.000Z","cacheid":"HPIG.BHZ.MX.--"}
{"Cmd":"Site","Elv":193.000000,"Lat":41.799820,"Lon":-87.853430,"Site":"HQIL.HHZ.NW.00","UpdateTime":"2017-03-23T19:20:28.000Z","cacheid":"HQIL.HHZ.NW.00"}
{"Cmd":"Site","Elv":1920.000000,"Lat":34.386840,"Lon":62.243760,"Site":"HRA.BHZ.IM.--","UpdateTime":"2017-03-23T19:18:36.000Z","cacheid":"HRA.BHZ.IM.--"}
{"Cmd":"Site","Elv":200.000000,"Lat":42.506400,"Lon":-71.558300,"Site":"HRV.BHZ.IU.10","UpdateTime":"2017-03-23T19:31:08.000Z","cacheid":"HRV.BHZ.IU.10"}
{"Cmd":"Site","Elv":1342.000000,"Lat":46.711330,"Lon":-111.831200,"Site":"HRY.EHZ.MB.--","UpdateTime":"2017-03-23T19:08:18.000Z","cacheid":"HRY.EHZ.MB.--"}
{"Cmd":"Site","Elv":250.000000,"Lat":29.019753,"Lon":-110.949303,"Site":"HSIG.BHZ.MX.--","UpdateTime":"2017-03-23T19:19:08.000Z","cacheid":"HSIG.BHZ.MX.--"}
{"Cmd":"Site","Elv":2465.000000,"Lat":19.602683,"Lon":-155.483002,"Site":"HSSD.HHZ.HV.--","UpdateTime":"2017-03-23T19:07:12.000Z","cacheid":"HSSD.HHZ.HV.--"}
{"Cmd":"Site","Elv":38.000000,"Lat":15.231660,"Lon":145.798510,"Site":"HTSP.BHZ.MI.--","UpdateTime":"2017-03-23T19:17:55.000Z","cacheid":"HTSP.BHZ.MI.--"}
{"Cmd":"Site","Elv":2204.000000,"Lat":19.684660,"Lon":-155.835697,"Site":"HUAD.HHZ.HV.--","UpdateTime":"2017-03-23T19:07:13.000Z","cacheid":"HUAD.HHZ.HV.--"}
{"Cmd":"Site","Elv":1870.000000,"Lat":15.318176,"Lon":-91.502538,"Site":"HUEH.HHZ.GI.--","UpdateTime":"2017-03-23T19:20:47.000Z","cacheid":"HUEH.HHZ.GI.--"}
{"Cmd":"Site","Elv":504.900000,"Lat":42.607100,"Lon":-122.956690,"Site":"HUMO.BHZ.BK.00","UpdateTime":"2017-03-23T19:18:39.000Z","cacheid":"HUMO.BHZ.BK.00"}
{"Cmd":"Site","Elv":1609.000000,"Lat":41.779670,"Lon":-112.775000,"Site":"HVU.HHZ.UU.01","UpdateTime":"2017-03-23T19:18:56.000Z","cacheid":"HVU.HHZ.UU.01"}
{"Cmd":"Site","Elv":1830.000000,"Lat":41.606900,"Lon":-111.565200,"Site":"HWUT.BHZ.US.00","UpdateTime":"2017-03-23T19:12:21.000Z","cacheid":"HWUT.BHZ.US.00"}
{"Cmd":"Site","Elv":1416.000000,"Lat":60.825000,"Lon":-137.503800,"Site":"HYT.HHZ.CN.--","UpdateTime":"2017-03-23T19:18:38.000Z","cacheid":"HYT.HHZ.CN.--"}
{"Cmd":"Site","Elv":194.000000,"Lat":10.713700,"Lon":-85.595400,"Site":"HZTE.HHZ.OV.--","UpdateTime":"2017-03-23T19:16:33.000Z","cacheid":"HZTE.HHZ.OV.--"}
{"Cmd":"Site","Elv":246.000000,"Lat":65.180000,"Lon":-151.982200,"Site":"I21K.BHZ.TA.--","UpdateTime":"2017-03-23T19:06:50.000Z","cacheid":"I21K.BHZ.TA.--"}
{"Cmd":"Site","Elv":147.000000,"Lat":65.147900,"Lon":-149.360300,"Site":"I23K.BHZ.TA.--","UpdateTime":"2017-03-23T19:08:11.000Z","cacheid":"I23K.BHZ.TA.--"}
{"Cmd":"Site","Elv":354.000000,"Lat":44.014900,"Lon":-93.400300,"Site":"I37B.BHZ.N4.--","UpdateTime":"2017-03-23T19:10:00.000Z","cacheid":"I37B.BHZ.N4.--"}
{"Cmd":"Site","Elv":419.000000,"Lat":43.891600,"Lon":-90.617700,"Site":"I40B.BHZ.N4.--","UpdateTime":"2017-03-23T19:15:30.000Z","cacheid":"I40B.BHZ.N4.--"}
{"Cmd":"Site","Elv":298.000000,"Lat":43.890800,"Lon":-88.913400,"Site":"I42A.BHZ.N4.--","UpdateTime":"2017-03-23T19:20:04.000Z","cacheid":"I42A.BHZ.N4.--"}
{"Cmd":"Site","Elv":215.000000,"Lat":44.036100,"Lon":-86.234800,"Site":"I45A.BHZ.N4.--","UpdateTime":"2017-03-23T19:16:25.000Z","cacheid":"I45A.BHZ.N4.--"}
{"Cmd":"Site","Elv":217.000000,"Lat":43.940000,"Lon":-82.824600,"Site":"I49A.BHZ.N4.--","UpdateTime":"2017-03-23T19:41:37.000Z","cacheid":"I49A.BHZ.N4.--"}
{"Cmd":"Site","Elv":264.000000,"Lat":43.874300,"Lon":-71.335900,"Site":"I62A.BHZ.N4.--","UpdateTime":"2017-03-23T19:44:44.000Z","cacheid":"I62A.BHZ.N4.--"}
{"Cmd":"Site","Elv":177.000000,"Lat":44.050500,"Lon":-70.580900,"Site":"I63A.BHZ.N4.--","UpdateTime":"2017-03-23T19:44:47.000Z","cacheid":"I63A.BHZ.N4.--"}
{"Cmd":"Site","Elv":132.000000,"Lat":32.923700,"Lon":-96.913500,"Site":"IFBF.EHZ.ZW.00","UpdateTime":"2017-03-23T19:21:08.000Z","cacheid":"IFBF.EHZ.ZW.00"}
{"Cmd":"Site","Elv":150.000000,"Lat":32.831200,"Lon":-96.921100,"Site":"IFS3.EHZ.ZW.00","UpdateTime":"2017-03-23T19:16:15.000Z","cacheid":"IFS3.EHZ.ZW.00"}
{"Cmd":"Site","Elv":1284.000000,"Lat":38.220300,"Lon":69.326600,"Site":"IGRN.HHZ.TJ.--","UpdateTime":"2017-03-23T19:17:37.000Z","cacheid":"IGRN.HHZ.TJ.--"}
{"Cmd":"Site","Elv":419.000000,"Lat":64.771400,"Lon":-146.886600,"Site":"IL31.BHZ.IM.--","UpdateTime":"2017-03-23T19:06:36.000Z","cacheid":"IL31.BHZ.IM.--"}
{"Cmd":"Site","Elv":34.000000,"Lat":14.774500,"Lon":-60.875300,"Site":"ILAM.BHZ.WI.00","UpdateTime":"2017-03-23T19:11:53.000Z","cacheid":"ILAM.BHZ.WI.00"}
{"Cmd":"Site","Elv":53.500000,"Lat":69.212140,"Lon":-51.104800,"Site":"ILULI.BHZ.DK.--","UpdateTime":"2017-03-23T19:11:18.000Z","cacheid":"ILULI.BHZ.DK.--"}
{"Cmd":"Site","Elv":79.000000,"Lat":37.477600,"Lon":126.623900,"Site":"INCN.BHZ.IU.10","UpdateTime":"2017-03-23T19:18:01.000Z","cacheid":"INCN.BHZ.IU.10"}
{"Cmd":"Site","Elv":44.000000,"Lat":68.306500,"Lon":-133.525400,"Site":"INK.BHZ.CN.--","UpdateTime":"2017-03-23T19:11:36.000Z","cacheid":"INK.BHZ.CN.--"}
{"Cmd":"Site","Elv":132.000000,"Lat":35.350000,"Lon":137.029000,"Site":"INU.BHZ.G.00","UpdateTime":"2017-03-23T19:11:09.000Z","cacheid":"INU.BHZ.G.00"}
{"Cmd":"Site","Elv":247.000000,"Lat":4.479500,"Lon":101.025500,"Site":"IPM.BHZ.MY.--","UpdateTime":"2017-03-23T19:05:20.000Z","cacheid":"IPM.BHZ.MY.--"}
{"Cmd":"Site","Elv":1229.000000,"Lat":43.358000,"Lon":-118.474300,"Site":"IRON.HHZ.UW.--","UpdateTime":"2017-03-23T19:15:22.000Z","cacheid":"IRON.HHZ.UW.--"}
{"Cmd":"Site","Elv":873.000000,"Lat":35.662780,"Lon":-118.474030,"Site":"ISA.BHZ.CI.--","UpdateTime":"2017-03-23T19:15:24.000Z","cacheid":"ISA.BHZ.CI.--"}
{"Cmd":"Site","Elv":2743.000000,"Lat":39.799700,"Lon":-105.613400,"Site":"ISCO.BHZ.US.00","UpdateTime":"2017-03-23T19:10:37.000Z","cacheid":"ISCO.BHZ.US.00"}
{"Cmd":"Site","Elv":1425.000000,"Lat":60.602400,"Lon":-142.340600,"Site":"ISLE.BHZ.AK.--","UpdateTime":"2017-03-23T19:21:14.000Z","cacheid":"ISLE.BHZ.AK.--"}
{"Cmd":"Site","Elv":1095.000000,"Lat":37.843300,"Lon":30.509300,"Site":"ISP.BHZ.GE.10","UpdateTime":"2017-03-23T19:22:22.000Z","cacheid":"ISP.BHZ.GE.10"}
{"Cmd":"Site","Elv":459.000000,"Lat":-27.234900,"Lon":-52.131300,"Site":"ITAB.HHZ.BL.--","UpdateTime":"2017-03-23T19:21:06.000Z","cacheid":"ITAB.HHZ.BL.--"}
{"Cmd":"Site","Elv":230.000000,"Lat":32.848900,"Lon":-96.899000,"Site":"ITL1.EHZ.ZW.00","UpdateTime":"2017-03-23T19:07:46.000Z","cacheid":"ITL1.EHZ.ZW.00"}
{"Cmd":"Site","Elv":423.000000,"Lat":37.178720,"Lon":21.925220,"Site":"ITM.HHZ.HL.--","UpdateTime":"2017-03-23T19:17:09.000Z","cacheid":"ITM.HHZ.HL.--"}
{"Cmd":"Site","Elv":95.000000,"Lat":-29.663800,"Lon":-56.627500,"Site":"ITQB.HHZ.BL.--","UpdateTime":"2017-03-23T19:19:45.000Z","cacheid":"ITQB.HHZ.BL.--"}
{"Cmd":"Site","Elv":158.000000,"Lat":32.890300,"Lon":-96.849800,"Site":"ITSC.EHZ.ZW.00","UpdateTime":"2017-03-23T19:20:40.000Z","cacheid":"ITSC.EHZ.ZW.00"}
{"Cmd":"Site","Elv":15.000000,"Lat":61.205808,"Lon":-48.171178,"Site":"IVI.BHZ.G.00","UpdateTime":"2017-03-23T19:44:22.000Z","cacheid":"IVI.BHZ.G.00"}
{"Cmd":"Site","Elv":1293.000000,"Lat":44.082000,"Lon":-119.504200,"Site":"IZEE.HHZ.UW.--","UpdateTime":"2017-03-23T19:19:21.000Z","cacheid":"IZEE.HHZ.UW.--"}
{"Cmd":"Site","Elv":312.000000,"Lat":64.176700,"Lon":-154.146700,"Site":"J20K.BHZ.TA.--","UpdateTime":"2017-03-23T19:08:08.000Z","cacheid":"J20K.BHZ.TA.--"}
{"Cmd":"Site","Elv":236.000000,"Lat":43.238200,"Lon":-84.821400,"Site":"J47A.BHZ.N4.--","UpdateTime":"2017-03-23T19:14:53.000Z","cacheid":"J47A.BHZ.N4.--"}
{"Cmd":"Site","Elv":97.000000,"Lat":43.265700,"Lon":-77.816700,"Site":"J55A.BHZ.N4.--","UpdateTime":"2017-03-23T19:27:51.000Z","cacheid":"J55A.BHZ.N4.--"}
{"Cmd":"Site","Elv":191.000000,"Lat":43.409900,"Lon":-75.996800,"Site":"J57A.BHZ.N4.--","UpdateTime":"2017-03-23T19:44:39.000Z","cacheid":"J57A.BHZ.N4.--"}
{"Cmd":"Site","Elv":436.000000,"Lat":43.360300,"Lon":-75.285200,"Site":"J58A.BHZ.N4.--","UpdateTime":"2017-03-23T19:20:43.000Z","cacheid":"J58A.BHZ.N4.--"}
{"Cmd":"Site","Elv":541.000000,"Lat":43.464700,"Lon":-74.504100,"Site":"J59A.BHZ.N4.--","UpdateTime":"2017-03-23T19:31:20.000Z","cacheid":"J59A.BHZ.N4.--"}
{"Cmd":"Site","Elv":253.000000,"Lat":43.346200,"Lon":-72.553500,"Site":"J61A.BHZ.N4.--","UpdateTime":"2017-03-23T19:22:06.000Z","cacheid":"J61A.BHZ.N4.--"}
{"Cmd":"Site","Elv":85.000000,"Lat":9.662400,"Lon":-84.659500,"Site":"JACO.HHZ.OV.--","UpdateTime":"2017-03-23T19:16:32.000Z","cacheid":"JACO.HHZ.OV.--"}
{"Cmd":"Site","Elv":171.000000,"Lat":-8.470200,"Lon":114.152100,"Site":"JAGI.BHZ.GE.--","UpdateTime":"2017-03-23T19:08:11.000Z","cacheid":"JAGI.BHZ.GE.--"}
{"Cmd":"Site","Elv":47.000000,"Lat":18.237700,"Lon":-72.518000,"Site":"JAKH.HHZ.CN.--","UpdateTime":"2017-03-23T19:44:26.000Z","cacheid":"JAKH.HHZ.CN.--"}
{"Cmd":"Site","Elv":27.200000,"Lat":40.817450,"Lon":-124.029550,"Site":"JCC.BHZ.BK.00","UpdateTime":"2017-03-23T19:13:07.000Z","cacheid":"JCC.BHZ.BK.00"}
{"Cmd":"Site","Elv":150.000000,"Lat":27.095700,"Lon":142.184500,"Site":"JCJ.BHZ.JP.--","UpdateTime":"2017-03-23T19:17:56.000Z","cacheid":"JCJ.BHZ.JP.--"}
{"Cmd":"Site","Elv":591.000000,"Lat":30.479400,"Lon":-99.802200,"Site":"JCT.BHZ.US.00","UpdateTime":"2017-03-23T19:09:20.000Z","cacheid":"JCT.BHZ.US.00"}
{"Cmd":"Site","Elv":148.000000,"Lat":43.751570,"Lon":-124.049050,"Site":"JEDS.BHZ.UW.--","UpdateTime":"2017-03-23T19:13:04.000Z","cacheid":"JEDS.BHZ.UW.--"}
{"Cmd":"Site","Elv":220.000000,"Lat":44.118800,"Lon":142.593000,"Site":"JEM.BHZ.JP.--","UpdateTime":"2017-03-23T19:18:15.000Z","cacheid":"JEM.BHZ.JP.--"}
{"Cmd":"Site","Elv":185.000000,"Lat":42.842670,"Lon":141.446170,"Site":"JEW.BHZ.JP.--","UpdateTime":"2017-03-23T19:18:17.000Z","cacheid":"JEW.BHZ.JP.--"}
{"Cmd":"Site","Elv":335.000000,"Lat":42.914200,"Lon":-90.248100,"Site":"JFWS.BHZ.US.10","UpdateTime":"2017-03-23T19:09:52.000Z","cacheid":"JFWS.BHZ.US.10"}
{"Cmd":"Site","Elv":580.000000,"Lat":35.604000,"Lon":137.354170,"Site":"JGF.BHZ.JP.--","UpdateTime":"2017-03-23T19:11:11.000Z","cacheid":"JGF.BHZ.JP.--"}
{"Cmd":"Site","Elv":70.000000,"Lat":33.115300,"Lon":139.813800,"Site":"JHJ2.BHZ.JP.--","UpdateTime":"2017-03-23T19:22:07.000Z","cacheid":"JHJ2.BHZ.JP.--"}
{"Cmd":"Site","Elv":470.000000,"Lat":35.001830,"Lon":133.113670,"Site":"JHS.BHZ.JP.--","UpdateTime":"2017-03-23T19:21:20.000Z","cacheid":"JHS.BHZ.JP.--"}
{"Cmd":"Site","Elv":10.000000,"Lat":58.275800,"Lon":-134.384800,"Site":"JIS.BHZ.AK.--","UpdateTime":"2017-03-23T19:07:24.000Z","cacheid":"JIS.BHZ.AK.--"}
{"Cmd":"Site","Elv":220.000000,"Lat":44.118800,"Lon":142.593000,"Site":"JKA.BHZ.JP.--","UpdateTime":"2017-03-23T19:18:23.000Z","cacheid":"JKA.BHZ.JP.--"}
{"Cmd":"Site","Elv":2285.000000,"Lat":40.601950,"Lon":-111.449950,"Site":"JLU.HHZ.UU.01","UpdateTime":"2017-03-23T19:15:37.000Z","cacheid":"JLU.HHZ.UU.01"}
{"Cmd":"Site","Elv":100.000000,"Lat":37.869000,"Lon":140.789670,"Site":"JMM.BHZ.JP.--","UpdateTime":"2017-03-23T19:10:58.000Z","cacheid":"JMM.BHZ.JP.--"}
{"Cmd":"Site","Elv":550.000000,"Lat":33.731500,"Lon":133.876330,"Site":"JMN.BHZ.JP.--","UpdateTime":"2017-03-23T19:16:07.000Z","cacheid":"JMN.BHZ.JP.--"}
{"Cmd":"Site","Elv":50.000000,"Lat":25.819830,"Lon":131.223670,"Site":"JMZ.BHZ.JP.--","UpdateTime":"2017-03-23T19:17:59.000Z","cacheid":"JMZ.BHZ.JP.--"}
{"Cmd":"Site","Elv":540.000000,"Lat":33.125000,"Lon":130.876700,"Site":"JNU.BHZ.JP.--","UpdateTime":"2017-03-23T19:05:34.000Z","cacheid":"JNU.BHZ.JP.--"}
{"Cmd":"Site","Elv":-5.500000,"Lat":16.732900,"Lon":-169.529200,"Site":"JOHN.BHZ.IU.10","UpdateTime":"2017-03-23T19:40:19.000Z","cacheid":"JOHN.BHZ.IU.10"}
{"Cmd":"Site","Elv":220.000000,"Lat":26.836000,"Lon":128.272500,"Site":"JOW.BHZ.JP.--","UpdateTime":"2017-03-23T19:11:46.000Z","cacheid":"JOW.BHZ.JP.--"}
{"Cmd":"Site","Elv":103.000000,"Lat":34.281800,"Lon":-81.259660,"Site":"JSC.HHZ.CO.00","UpdateTime":"2017-03-23T19:26:49.000Z","cacheid":"JSC.HHZ.CO.00"}
{"Cmd":"Site","Elv":146.000000,"Lat":38.040000,"Lon":138.257170,"Site":"JSD.BHZ.JP.--","UpdateTime":"2017-03-23T19:15:10.000Z","cacheid":"JSD.BHZ.JP.--"}
{"Cmd":"Site","Elv":107.000000,"Lat":34.677670,"Lon":138.183000,"Site":"JSG.BHZ.JP.--","UpdateTime":"2017-03-23T19:05:18.000Z","cacheid":"JSG.BHZ.JP.--"}
{"Cmd":"Site","Elv":67.000000,"Lat":37.693800,"Lon":-77.878600,"Site":"JSRW.EHZ.SE.--","UpdateTime":"2017-03-23T19:30:19.000Z","cacheid":"JSRW.EHZ.SE.--"}
{"Cmd":"Site","Elv":400.000000,"Lat":31.509330,"Lon":130.452670,"Site":"JSU.BHZ.JP.--","UpdateTime":"2017-03-23T19:17:57.000Z","cacheid":"JSU.BHZ.JP.--"}
{"Cmd":"Site","Elv":130.000000,"Lat":40.789500,"Lon":141.064670,"Site":"JTM.BHZ.JP.--","UpdateTime":"2017-03-23T19:11:05.000Z","cacheid":"JTM.BHZ.JP.--"}
{"Cmd":"Site","Elv":1469.000000,"Lat":47.746670,"Lon":-114.282500,"Site":"JTMT.BHZ.MB.--","UpdateTime":"2017-03-23T19:08:34.000Z","cacheid":"JTMT.BHZ.MB.--"}
{"Cmd":"Site","Elv":340.000000,"Lat":10.290800,"Lon":-84.952500,"Site":"JTS.BHZ.II.10","UpdateTime":"2017-03-23T19:16:31.000Z","cacheid":"JTS.BHZ.II.10"}
{"Cmd":"Site","Elv":70.000000,"Lat":34.527500,"Lon":129.396300,"Site":"JTU.BHZ.JP.--","UpdateTime":"2017-03-23T19:18:01.000Z","cacheid":"JTU.BHZ.JP.--"}
{"Cmd":"Site","Elv":172.000000,"Lat":35.285670,"Lon":135.398670,"Site":"JWT.BHZ.JP.--","UpdateTime":"2017-03-23T19:10:50.000Z","cacheid":"JWT.BHZ.JP.--"}
{"Cmd":"Site","Elv":31.000000,"Lat":36.230830,"Lon":140.190670,"Site":"JYT.BHZ.JP.--","UpdateTime":"2017-03-23T19:12:46.000Z","cacheid":"JYT.BHZ.JP.--"}
{"Cmd":"Site","Elv":546.000000,"Lat":63.356900,"Lon":-154.070000,"Site":"K20K.BHZ.TA.--","UpdateTime":"2017-03-23T19:17:07.000Z","cacheid":"K20K.BHZ.TA.--"}
{"Cmd":"Site","Elv":1686.000000,"Lat":42.650700,"Lon":-106.524000,"Site":"K22A.BHZ.TA.--","UpdateTime":"2017-03-23T19:10:11.000Z","cacheid":"K22A.BHZ.TA.--"}
{"Cmd":"Site","Elv":581.000000,"Lat":42.622900,"Lon":-98.754700,"Site":"K31B.BHZ.N4.--","UpdateTime":"2017-03-23T19:09:39.000Z","cacheid":"K31B.BHZ.N4.--"}
{"Cmd":"Site","Elv":307.000000,"Lat":42.647200,"Lon":-92.770900,"Site":"K38B.BHZ.N4.--","UpdateTime":"2017-03-23T19:09:53.000Z","cacheid":"K38B.BHZ.N4.--"}
{"Cmd":"Site","Elv":264.000000,"Lat":42.704400,"Lon":-88.332000,"Site":"K43A.BHZ.N4.--","UpdateTime":"2017-03-23T19:10:04.000Z","cacheid":"K43A.BHZ.N4.--"}
{"Cmd":"Site","Elv":191.000000,"Lat":42.774900,"Lon":-82.623100,"Site":"K50A.BHZ.N4.--","UpdateTime":"2017-03-23T19:19:58.000Z","cacheid":"K50A.BHZ.N4.--"}
{"Cmd":"Site","Elv":408.000000,"Lat":42.731300,"Lon":-76.516300,"Site":"K57A.BHZ.N4.--","UpdateTime":"2017-03-23T19:44:22.000Z","cacheid":"K57A.BHZ.N4.--"}
{"Cmd":"Site","Elv":289.000000,"Lat":42.665100,"Lon":-72.234500,"Site":"K62A.BHZ.N4.--","UpdateTime":"2017-03-23T19:31:10.000Z","cacheid":"K62A.BHZ.N4.--"}
{"Cmd":"Site","Elv":1.000000,"Lat":0.492640,"Lon":72.994860,"Site":"KAAM.BHZ.GE.--","UpdateTime":"2017-03-23T19:43:06.000Z","cacheid":"KAAM.BHZ.GE.--"}
{"Cmd":"Site","Elv":316.000000,"Lat":59.926800,"Lon":-144.418800,"Site":"KAI.BHZ.AK.--","UpdateTime":"2017-03-23T19:12:29.000Z","cacheid":"KAI.BHZ.AK.--"}
{"Cmd":"Site","Elv":360.000000,"Lat":37.153420,"Lon":-97.758970,"Site":"KAN01.HHZ.GS.01","UpdateTime":"2017-03-23T19:08:50.000Z","cacheid":"KAN01.HHZ.GS.01"}
{"Cmd":"Site","Elv":403.000000,"Lat":37.197967,"Lon":-97.879383,"Site":"KAN02.HNZ.NQ.02","UpdateTime":"2017-03-23T19:07:23.000Z","cacheid":"KAN02.HNZ.NQ.02"}
{"Cmd":"Site","Elv":393.000000,"Lat":37.248000,"Lon":-97.858600,"Site":"KAN06.HHZ.GS.01","UpdateTime":"2017-03-23T19:11:59.000Z","cacheid":"KAN06.HHZ.GS.01"}
{"Cmd":"Site","Elv":375.000000,"Lat":37.226720,"Lon":-97.970947,"Site":"KAN08.HHZ.GS.01","UpdateTime":"2017-03-23T19:12:51.000Z","cacheid":"KAN08.HHZ.GS.01"}
{"Cmd":"Site","Elv":371.000000,"Lat":37.136130,"Lon":-97.618320,"Site":"KAN09.HHZ.GS.01","UpdateTime":"2017-03-23T19:08:51.000Z","cacheid":"KAN09.HHZ.GS.01"}
{"Cmd":"Site","Elv":417.000000,"Lat":37.123500,"Lon":-98.095133,"Site":"KAN10.HHZ.GS.01","UpdateTime":"2017-03-23T19:12:51.000Z","cacheid":"KAN10.HHZ.GS.01"}
{"Cmd":"Site","Elv":410.000000,"Lat":37.205967,"Lon":-97.913300,"Site":"KAN11.HHZ.GS.01","UpdateTime":"2017-03-23T19:12:19.000Z","cacheid":"KAN11.HHZ.GS.01"}
{"Cmd":"Site","Elv":425.500000,"Lat":37.297383,"Lon":-97.998000,"Site":"KAN12.HHZ.GS.01","UpdateTime":"2017-03-23T19:05:12.000Z","cacheid":"KAN12.HHZ.GS.01"}
{"Cmd":"Site","Elv":340.000000,"Lat":37.012881,"Lon":-97.477803,"Site":"KAN13.HHZ.GS.01","UpdateTime":"2017-03-23T19:08:50.000Z","cacheid":"KAN13.HHZ.GS.01"}
{"Cmd":"Site","Elv":363.000000,"Lat":36.956820,"Lon":-97.963020,"Site":"KAN14.HHZ.GS.01","UpdateTime":"2017-03-23T19:08:01.000Z","cacheid":"KAN14.HHZ.GS.01"}
{"Cmd":"Site","Elv":425.000000,"Lat":37.225617,"Lon":-98.064717,"Site":"KAN16.HHZ.GS.01","UpdateTime":"2017-03-23T19:12:48.000Z","cacheid":"KAN16.HHZ.GS.01"}
{"Cmd":"Site","Elv":355.000000,"Lat":37.044070,"Lon":-97.764750,"Site":"KAN17.HHZ.GS.01","UpdateTime":"2017-03-23T19:05:24.000Z","cacheid":"KAN17.HHZ.GS.01"}
{"Cmd":"Site","Elv":293.000000,"Lat":-5.014200,"Lon":119.751700,"Site":"KAPI.BHZ.II.10","UpdateTime":"2017-03-23T19:18:08.000Z","cacheid":"KAPI.BHZ.II.10"}
{"Cmd":"Site","Elv":1747.000000,"Lat":40.615200,"Lon":43.093700,"Site":"KARS.HHZ.KO.--","UpdateTime":"2017-03-23T19:19:08.000Z","cacheid":"KARS.HHZ.KO.--"}
{"Cmd":"Site","Elv":1310.000000,"Lat":27.712350,"Lon":85.315610,"Site":"KATNP.HNZ.NQ.01","UpdateTime":"2017-03-23T19:07:41.000Z","cacheid":"KATNP.HNZ.NQ.01"}
{"Cmd":"Site","Elv":1913.000000,"Lat":34.540800,"Lon":69.043200,"Site":"KBL.BHZ.IU.--","UpdateTime":"2017-03-23T19:05:53.000Z","cacheid":"KBL.BHZ.IU.--"}
{"Cmd":"Site","Elv":800.000000,"Lat":40.623600,"Lon":20.787399,"Site":"KBN.HHZ.AC.--","UpdateTime":"2017-03-23T19:17:37.000Z","cacheid":"KBN.HHZ.AC.--"}
{"Cmd":"Site","Elv":1010.000000,"Lat":42.212357,"Lon":-124.225983,"Site":"KBO.HHZ.NC.--","UpdateTime":"2017-03-23T19:21:31.000Z","cacheid":"KBO.HHZ.NC.--"}
{"Cmd":"Site","Elv":87.000000,"Lat":78.915400,"Lon":11.938500,"Site":"KBS.BHZ.IU.10","UpdateTime":"2017-03-23T19:14:42.000Z","cacheid":"KBS.BHZ.IU.10"}
{"Cmd":"Site","Elv":1261.000000,"Lat":39.686310,"Lon":-123.582420,"Site":"KCPB.HHZ.NC.--","UpdateTime":"2017-03-23T19:18:40.000Z","cacheid":"KCPB.HHZ.NC.--"}
{"Cmd":"Site","Elv":146.500000,"Lat":57.782800,"Lon":-152.583500,"Site":"KDAK.BHZ.II.10","UpdateTime":"2017-03-23T19:45:36.000Z","cacheid":"KDAK.BHZ.II.10"}
{"Cmd":"Site","Elv":1830.000000,"Lat":42.127220,"Lon":77.194440,"Site":"KDJ.BHZ.KR.--","UpdateTime":"2017-03-23T19:19:04.000Z","cacheid":"KDJ.BHZ.KR.--"}
{"Cmd":"Site","Elv":818.000000,"Lat":42.872211,"Lon":-124.334251,"Site":"KEB.HHZ.NC.--","UpdateTime":"2017-03-23T19:18:32.000Z","cacheid":"KEB.HHZ.NC.--"}
{"Cmd":"Site","Elv":885.000000,"Lat":35.731800,"Lon":9.346000,"Site":"KEST.BHZ.IM.--","UpdateTime":"2017-03-23T19:08:16.000Z","cacheid":"KEST.BHZ.IM.--"}
{"Cmd":"Site","Elv":85.000000,"Lat":69.756500,"Lon":27.003500,"Site":"KEV.BHZ.IU.00","UpdateTime":"2017-03-23T19:18:49.000Z","cacheid":"KEV.BHZ.IU.00"}
{"Cmd":"Site","Elv":700.000000,"Lat":49.130900,"Lon":13.578200,"Site":"KHC.BHZ.CZ.--","UpdateTime":"2017-03-23T19:17:32.000Z","cacheid":"KHC.BHZ.CZ.--"}
{"Cmd":"Site","Elv":14.000000,"Lat":20.897200,"Lon":-156.426400,"Site":"KHLH.HHZ.PT.--","UpdateTime":"2017-03-23T19:36:19.000Z","cacheid":"KHLH.HHZ.PT.--"}
{"Cmd":"Site","Elv":958.000000,"Lat":19.592000,"Lon":-155.893100,"Site":"KHLU.HHZ.PT.--","UpdateTime":"2017-03-23T19:06:35.000Z","cacheid":"KHLU.HHZ.PT.--"}
{"Cmd":"Site","Elv":1501.000000,"Lat":40.874748,"Lon":-123.732590,"Site":"KHMB.HHZ.NC.--","UpdateTime":"2017-03-23T19:43:52.000Z","cacheid":"KHMB.HHZ.NC.--"}
{"Cmd":"Site","Elv":1937.000000,"Lat":19.246100,"Lon":-155.615000,"Site":"KHU.HHZ.PT.--","UpdateTime":"2017-03-23T19:11:51.000Z","cacheid":"KHU.HHZ.PT.--"}
{"Cmd":"Site","Elv":64.000000,"Lat":-42.415980,"Lon":173.538970,"Site":"KHZ.HHZ.NZ.10","UpdateTime":"2017-03-23T19:21:30.000Z","cacheid":"KHZ.HHZ.NZ.10"}
{"Cmd":"Site","Elv":790.000000,"Lat":-2.359070,"Lon":38.043300,"Site":"KIBK.BHZ.GE.--","UpdateTime":"2017-03-23T19:11:29.000Z","cacheid":"KIBK.BHZ.GE.--"}
{"Cmd":"Site","Elv":1210.000000,"Lat":43.956200,"Lon":42.688800,"Site":"KIV.BHZ.II.00","UpdateTime":"2017-03-23T19:19:03.000Z","cacheid":"KIV.BHZ.II.00"}
{"Cmd":"Site","Elv":244.000000,"Lat":51.852000,"Lon":-177.152800,"Site":"KIWB.EHZ.AV.--","UpdateTime":"2017-03-23T19:23:05.000Z","cacheid":"KIWB.EHZ.AV.--"}
{"Cmd":"Site","Elv":830.000000,"Lat":6.044300,"Lon":116.214700,"Site":"KKM.BHZ.MY.--","UpdateTime":"2017-03-23T19:18:11.000Z","cacheid":"KKM.BHZ.MY.--"}
{"Cmd":"Site","Elv":1140.000000,"Lat":19.398242,"Lon":-155.266032,"Site":"KKO.HHZ.HV.--","UpdateTime":"2017-03-23T19:07:15.000Z","cacheid":"KKO.HHZ.HV.--"}
{"Cmd":"Site","Elv":1047.100000,"Lat":61.492400,"Lon":-145.922700,"Site":"KLU.BHZ.AK.--","UpdateTime":"2017-03-23T19:15:23.000Z","cacheid":"KLU.BHZ.AK.--"}
{"Cmd":"Site","Elv":1930.000000,"Lat":-1.127100,"Lon":37.252500,"Site":"KMBO.BHZ.IU.10","UpdateTime":"2017-03-23T19:14:03.000Z","cacheid":"KMBO.BHZ.IU.10"}
{"Cmd":"Site","Elv":54.000000,"Lat":24.463800,"Lon":118.388200,"Site":"KMNB.BHZ.TW.--","UpdateTime":"2017-03-23T19:43:19.000Z","cacheid":"KMNB.BHZ.TW.--"}
{"Cmd":"Site","Elv":915.000000,"Lat":40.202175,"Lon":-123.708633,"Site":"KMR.HHZ.NC.--","UpdateTime":"2017-03-23T19:28:32.000Z","cacheid":"KMR.HHZ.NC.--"}
{"Cmd":"Site","Elv":240.000000,"Lat":35.142000,"Lon":-81.333300,"Site":"KMSC.BHZ.TA.--","UpdateTime":"2017-03-23T19:15:05.000Z","cacheid":"KMSC.BHZ.TA.--"}
{"Cmd":"Site","Elv":1715.000000,"Lat":37.016600,"Lon":-112.822000,"Site":"KNB.HHZ.UU.01","UpdateTime":"2017-03-23T19:14:13.000Z","cacheid":"KNB.HHZ.UU.01"}
{"Cmd":"Site","Elv":598.000000,"Lat":61.413100,"Lon":-148.458500,"Site":"KNK.BHZ.AK.--","UpdateTime":"2017-03-23T19:05:43.000Z","cacheid":"KNK.BHZ.AK.--"}
{"Cmd":"Site","Elv":98.000000,"Lat":-15.676900,"Lon":128.762700,"Site":"KNRA.BHZ.AU.--","UpdateTime":"2017-03-23T19:11:49.000Z","cacheid":"KNRA.BHZ.AU.--"}
{"Cmd":"Site","Elv":49.000000,"Lat":1.792200,"Lon":103.846700,"Site":"KOM.BHZ.MY.--","UpdateTime":"2017-03-23T19:06:58.000Z","cacheid":"KOM.BHZ.MY.--"}
{"Cmd":"Site","Elv":216.000000,"Lat":59.649100,"Lon":9.598200,"Site":"KONO.BHZ.IU.10","UpdateTime":"2017-03-23T19:26:00.000Z","cacheid":"KONO.BHZ.IU.10"}
{"Cmd":"Site","Elv":10.000000,"Lat":66.895100,"Lon":-162.600000,"Site":"KOTZ.BHZ.AK.--","UpdateTime":"2017-03-23T19:05:52.000Z","cacheid":"KOTZ.BHZ.AK.--"}
{"Cmd":"Site","Elv":316.300000,"Lat":14.496700,"Lon":-4.014000,"Site":"KOWA.BHZ.IU.00","UpdateTime":"2017-03-23T19:19:47.000Z","cacheid":"KOWA.BHZ.IU.00"}
{"Cmd":"Site","Elv":1266.000000,"Lat":41.522957,"Lon":-123.907974,"Site":"KRMB.HHZ.NC.--","UpdateTime":"2017-03-23T19:20:54.000Z","cacheid":"KRMB.HHZ.NC.--"}
{"Cmd":"Site","Elv":276.000000,"Lat":37.501900,"Lon":127.866900,"Site":"KS31.BHZ.IM.--","UpdateTime":"2017-03-23T19:18:03.000Z","cacheid":"KS31.BHZ.IM.--"}
{"Cmd":"Site","Elv":1382.000000,"Lat":39.011200,"Lon":-102.627300,"Site":"KSCO.BHZ.TA.--","UpdateTime":"2017-03-23T19:09:26.000Z","cacheid":"KSCO.BHZ.TA.--"}
{"Cmd":"Site","Elv":114.000000,"Lat":41.726120,"Lon":-73.484250,"Site":"KSCT.BHZ.LD.--","UpdateTime":"2017-03-23T19:28:15.000Z","cacheid":"KSCT.BHZ.LD.--"}
{"Cmd":"Site","Elv":66.000000,"Lat":1.473300,"Lon":110.308300,"Site":"KSM.BHZ.MY.--","UpdateTime":"2017-03-23T19:07:23.000Z","cacheid":"KSM.BHZ.MY.--"}
{"Cmd":"Site","Elv":298.000000,"Lat":41.557038,"Lon":-75.768181,"Site":"KSPA.HHZ.LD.--","UpdateTime":"2017-03-23T19:29:11.000Z","cacheid":"KSPA.HHZ.LD.--"}
{"Cmd":"Site","Elv":211.800000,"Lat":39.100900,"Lon":-96.609400,"Site":"KSU1.BHZ.US.10","UpdateTime":"2017-03-23T19:09:00.000Z","cacheid":"KSU1.BHZ.US.10"}
{"Cmd":"Site","Elv":1172.000000,"Lat":63.552700,"Lon":-150.923300,"Site":"KTH.BHZ.AK.--","UpdateTime":"2017-03-23T19:06:49.000Z","cacheid":"KTH.BHZ.AK.--"}
{"Cmd":"Site","Elv":74.000000,"Lat":5.290200,"Lon":100.649200,"Site":"KUM.BHZ.MY.--","UpdateTime":"2017-03-23T19:05:27.000Z","cacheid":"KUM.BHZ.MY.--"}
{"Cmd":"Site","Elv":159.000000,"Lat":50.715400,"Lon":78.620200,"Site":"KURK.BHZ.II.10","UpdateTime":"2017-03-23T19:05:56.000Z","cacheid":"KURK.BHZ.II.10"}
{"Cmd":"Site","Elv":1829.000000,"Lat":39.048400,"Lon":-118.101200,"Site":"KVN.HHZ.NN.--","UpdateTime":"2017-03-23T19:06:47.000Z","cacheid":"KVN.HHZ.NN.--"}
{"Cmd":"Site","Elv":14.600000,"Lat":27.545900,"Lon":-97.892900,"Site":"KVTX.BHZ.US.00","UpdateTime":"2017-03-23T19:40:14.000Z","cacheid":"KVTX.BHZ.US.00"}
{"Cmd":"Site","Elv":448.000000,"Lat":49.631401,"Lon":22.707500,"Site":"KWP.BHZ.PL.--","UpdateTime":"2017-03-23T19:23:16.000Z","cacheid":"KWP.BHZ.PL.--"}
{"Cmd":"Site","Elv":648.000000,"Lat":62.181600,"Lon":-154.854300,"Site":"L19K.BHZ.TA.--","UpdateTime":"2017-03-23T19:12:18.000Z","cacheid":"L19K.BHZ.TA.--"}
{"Cmd":"Site","Elv":645.500000,"Lat":63.025400,"Lon":-143.347800,"Site":"L26K.BHZ.TA.--","UpdateTime":"2017-03-23T19:06:48.000Z","cacheid":"L26K.BHZ.TA.--"}
{"Cmd":"Site","Elv":753.000000,"Lat":63.061800,"Lon":-141.827500,"Site":"L27K.BHZ.TA.--","UpdateTime":"2017-03-23T19:15:40.000Z","cacheid":"L27K.BHZ.TA.--"}
{"Cmd":"Site","Elv":414.000000,"Lat":41.966600,"Lon":-96.376200,"Site":"L34B.BHZ.N4.--","UpdateTime":"2017-03-23T19:09:23.000Z","cacheid":"L34B.BHZ.N4.--"}
{"Cmd":"Site","Elv":242.000000,"Lat":42.062800,"Lon":-91.221800,"Site":"L40A.BHZ.N4.--","UpdateTime":"2017-03-23T19:09:57.000Z","cacheid":"L40A.BHZ.N4.--"}
{"Cmd":"Site","Elv":257.000000,"Lat":42.004000,"Lon":-89.667000,"Site":"L42A.BHZ.N4.--","UpdateTime":"2017-03-23T19:10:01.000Z","cacheid":"L42A.BHZ.N4.--"}
{"Cmd":"Site","Elv":202.000000,"Lat":42.178200,"Lon":-87.911900,"Site":"L44A.BHZ.TA.--","UpdateTime":"2017-03-23T19:10:09.000Z","cacheid":"L44A.BHZ.TA.--"}
{"Cmd":"Site","Elv":223.000000,"Lat":42.012700,"Lon":-86.295500,"Site":"L46A.BHZ.N4.--","UpdateTime":"2017-03-23T19:10:18.000Z","cacheid":"L46A.BHZ.N4.--"}
{"Cmd":"Site","Elv":369.000000,"Lat":41.943800,"Lon":-84.432900,"Site":"L48A.BHZ.N4.--","UpdateTime":"2017-03-23T19:10:24.000Z","cacheid":"L48A.BHZ.N4.--"}
{"Cmd":"Site","Elv":688.000000,"Lat":42.136500,"Lon":-77.559100,"Site":"L56A.BHZ.N4.--","UpdateTime":"2017-03-23T19:36:54.000Z","cacheid":"L56A.BHZ.N4.--"}
{"Cmd":"Site","Elv":677.000000,"Lat":42.190200,"Lon":-75.042600,"Site":"L59A.BHZ.N4.--","UpdateTime":"2017-03-23T19:29:55.000Z","cacheid":"L59A.BHZ.N4.--"}
{"Cmd":"Site","Elv":17.000000,"Lat":41.935900,"Lon":-70.839100,"Site":"L64A.BHZ.N4.--","UpdateTime":"2017-03-23T19:32:27.000Z","cacheid":"L64A.BHZ.N4.--"}
{"Cmd":"Site","Elv":902.000000,"Lat":46.688500,"Lon":-106.223100,"Site":"LAO.BHZ.US.00","UpdateTime":"2017-03-23T19:11:56.000Z","cacheid":"LAO.BHZ.US.00"}
{"Cmd":"Site","Elv":367.000000,"Lat":44.240100,"Lon":-71.925900,"Site":"LBNH.BHZ.US.00","UpdateTime":"2017-03-23T19:40:15.000Z","cacheid":"LBNH.BHZ.US.00"}
{"Cmd":"Site","Elv":1028.000000,"Lat":-25.015100,"Lon":25.596650,"Site":"LBTB.BHZ.GT.00","UpdateTime":"2017-03-23T19:19:23.000Z","cacheid":"LBTB.BHZ.GT.00"}
{"Cmd":"Site","Elv":438.000000,"Lat":-44.385553,"Lon":170.184420,"Site":"LBZ.HHZ.NZ.10","UpdateTime":"2017-03-23T19:21:27.000Z","cacheid":"LBZ.HHZ.NZ.10"}
{"Cmd":"Site","Elv":406.000000,"Lat":-38.897500,"Lon":-71.876100,"Site":"LC01.BHZ.C1.--","UpdateTime":"2017-03-23T19:19:42.000Z","cacheid":"LC01.BHZ.C1.--"}
{"Cmd":"Site","Elv":103.000000,"Lat":36.070000,"Lon":-91.154000,"Site":"LCAR.HHZ.AG.00","UpdateTime":"2017-03-23T19:07:38.000Z","cacheid":"LCAR.HHZ.AG.00"}
{"Cmd":"Site","Elv":5.500000,"Lat":19.667603,"Lon":-80.082133,"Site":"LCCY.HHZ.CY.01","UpdateTime":"2017-03-23T19:44:36.000Z","cacheid":"LCCY.HHZ.CY.01"}
{"Cmd":"Site","Elv":1414.000000,"Lat":37.232900,"Lon":-117.645900,"Site":"LCH.HHZ.NN.--","UpdateTime":"2017-03-23T19:20:22.000Z","cacheid":"LCH.HHZ.NN.--"}
{"Cmd":"Site","Elv":1411.000000,"Lat":37.011800,"Lon":-113.243900,"Site":"LCMT.HHZ.UU.01","UpdateTime":"2017-03-23T19:05:04.000Z","cacheid":"LCMT.HHZ.UU.01"}
{"Cmd":"Site","Elv":2274.000000,"Lat":-29.011000,"Lon":-70.700500,"Site":"LCO.BHZ.IU.10","UpdateTime":"2017-03-23T19:13:38.000Z","cacheid":"LCO.BHZ.IU.10"}
{"Cmd":"Site","Elv":1239.000000,"Lat":35.130660,"Lon":-115.184160,"Site":"LDF.BHZ.CI.--","UpdateTime":"2017-03-23T19:14:29.000Z","cacheid":"LDF.BHZ.CI.--"}
{"Cmd":"Site","Elv":177.000000,"Lat":5.177700,"Lon":118.498000,"Site":"LDM.BHZ.MY.--","UpdateTime":"2017-03-23T19:09:04.000Z","cacheid":"LDM.BHZ.MY.--"}
{"Cmd":"Site","Elv":72.800000,"Lat":46.545900,"Lon":-123.563200,"Site":"LEBA.HHZ.UW.--","UpdateTime":"2017-03-23T19:19:53.000Z","cacheid":"LEBA.HHZ.UW.--"}
{"Cmd":"Site","Elv":1698.000000,"Lat":34.165500,"Lon":-106.974166,"Site":"LEM.EHZ.SC.--","UpdateTime":"2017-03-23T19:05:36.000Z","cacheid":"LEM.EHZ.SC.--"}
{"Cmd":"Site","Elv":62.000000,"Lat":18.511000,"Lon":-72.605800,"Site":"LGNH.HHZ.CN.--","UpdateTime":"2017-03-23T19:27:33.000Z","cacheid":"LGNH.HHZ.CN.--"}
{"Cmd":"Site","Elv":70.700000,"Lat":-31.520000,"Lon":159.061300,"Site":"LHI.BHZ.AU.--","UpdateTime":"2017-03-23T19:18:21.000Z","cacheid":"LHI.BHZ.AU.--"}
{"Cmd":"Site","Elv":3.000000,"Lat":5.228800,"Lon":96.947200,"Site":"LHMI.BHZ.GE.--","UpdateTime":"2017-03-23T19:08:44.000Z","cacheid":"LHMI.BHZ.GE.--"}
{"Cmd":"Site","Elv":2353.000000,"Lat":38.251300,"Lon":-118.504900,"Site":"LHV.HHZ.NN.--","UpdateTime":"2017-03-23T19:18:51.000Z","cacheid":"LHV.HHZ.NN.--"}
{"Cmd":"Site","Elv":33.000000,"Lat":-20.777100,"Lon":167.240200,"Site":"LIFNC.BHZ.ND.00","UpdateTime":"2017-03-23T19:22:04.000Z","cacheid":"LIFNC.BHZ.ND.00"}
{"Cmd":"Site","Elv":26.000000,"Lat":21.987000,"Lon":-159.338800,"Site":"LIH.HHZ.PT.--","UpdateTime":"2017-03-23T19:06:53.000Z","cacheid":"LIH.HHZ.PT.--"}
{"Cmd":"Site","Elv":2424.000000,"Lat":44.565200,"Lon":-110.400000,"Site":"LKWY.BHZ.US.00","UpdateTime":"2017-03-23T19:12:04.000Z","cacheid":"LKWY.BHZ.US.00"}
{"Cmd":"Site","Elv":368.000000,"Lat":-43.190550,"Lon":-71.848380,"Site":"LL02.BHZ.C1.--","UpdateTime":"2017-03-23T19:19:54.000Z","cacheid":"LL02.BHZ.C1.--"}
{"Cmd":"Site","Elv":227.000000,"Lat":-41.138400,"Lon":-72.403360,"Site":"LL03.BHZ.C1.--","UpdateTime":"2017-03-23T19:15:42.000Z","cacheid":"LL03.BHZ.C1.--"}
{"Cmd":"Site","Elv":247.000000,"Lat":-40.909720,"Lon":-72.408170,"Site":"LL04.BHZ.C1.--","UpdateTime":"2017-03-23T19:05:37.000Z","cacheid":"LL04.BHZ.C1.--"}
{"Cmd":"Site","Elv":208.000000,"Lat":-41.405341,"Lon":-73.474450,"Site":"LL05.BHZ.C1.--","UpdateTime":"2017-03-23T19:22:00.000Z","cacheid":"LL05.BHZ.C1.--"}
{"Cmd":"Site","Elv":53.500000,"Lat":-42.832350,"Lon":-73.477850,"Site":"LL07.BHZ.C1.--","UpdateTime":"2017-03-23T19:22:37.000Z","cacheid":"LL07.BHZ.C1.--"}
{"Cmd":"Site","Elv":700.000000,"Lat":50.609000,"Lon":-121.881500,"Site":"LLLB.HHZ.CN.--","UpdateTime":"2017-03-23T19:19:00.000Z","cacheid":"LLLB.HHZ.CN.--"}
{"Cmd":"Site","Elv":365.000000,"Lat":45.854400,"Lon":-64.806300,"Site":"LMN.BHZ.CN.--","UpdateTime":"2017-03-23T19:22:09.000Z","cacheid":"LMN.BHZ.CN.--"}
{"Cmd":"Site","Elv":455.000000,"Lat":47.548500,"Lon":-70.325800,"Site":"LMQ.HHZ.CN.--","UpdateTime":"2017-03-23T19:44:46.000Z","cacheid":"LMQ.HHZ.CN.--"}
{"Cmd":"Site","Elv":144.000000,"Lat":36.101000,"Lon":-89.491000,"Site":"LNXT.HHZ.NM.00","UpdateTime":"2017-03-23T19:09:40.000Z","cacheid":"LNXT.HHZ.NM.00"}
{"Cmd":"Site","Elv":665.000000,"Lat":3.421950,"Lon":35.361650,"Site":"LODK.BHZ.GE.--","UpdateTime":"2017-03-23T19:07:44.000Z","cacheid":"LODK.BHZ.GE.--"}
{"Cmd":"Site","Elv":1663.100000,"Lat":60.824000,"Lon":-141.004800,"Site":"LOGN.BHZ.AK.--","UpdateTime":"2017-03-23T19:15:16.000Z","cacheid":"LOGN.BHZ.AK.--"}
{"Cmd":"Site","Elv":2121.000000,"Lat":43.612400,"Lon":-110.603800,"Site":"LOHW.BHZ.IW.00","UpdateTime":"2017-03-23T19:08:27.000Z","cacheid":"LOHW.BHZ.IW.00"}
{"Cmd":"Site","Elv":440.000000,"Lat":44.619700,"Lon":-74.582900,"Site":"LONY.BHZ.US.00","UpdateTime":"2017-03-23T19:22:18.000Z","cacheid":"LONY.BHZ.US.00"}
{"Cmd":"Site","Elv":286.000000,"Lat":33.992427,"Lon":-97.179990,"Site":"LOOK.HHZ.OK.--","UpdateTime":"2017-03-23T19:09:01.000Z","cacheid":"LOOK.HHZ.OK.--"}
{"Cmd":"Site","Elv":67.000000,"Lat":35.602000,"Lon":-90.300000,"Site":"LPAR.HHZ.NM.00","UpdateTime":"2017-03-23T19:09:38.000Z","cacheid":"LPAR.HHZ.NM.00"}
{"Cmd":"Site","Elv":4717.000000,"Lat":-16.287900,"Lon":-68.130690,"Site":"LPAZ.BHZ.GT.00","UpdateTime":"2017-03-23T19:19:46.000Z","cacheid":"LPAZ.BHZ.GT.00"}
{"Cmd":"Site","Elv":253.200000,"Lat":-39.632184,"Lon":-72.345701,"Site":"LR03.BHZ.C1.--","UpdateTime":"2017-03-23T19:16:26.000Z","cacheid":"LR03.BHZ.C1.--"}
{"Cmd":"Site","Elv":293.800000,"Lat":48.057500,"Lon":-123.504000,"Site":"LRIV.BHZ.UW.--","UpdateTime":"2017-03-23T19:21:43.000Z","cacheid":"LRIV.BHZ.UW.--"}
{"Cmd":"Site","Elv":2326.000000,"Lat":45.822170,"Lon":-112.451000,"Site":"LRM.EHZ.MB.--","UpdateTime":"2017-03-23T19:08:17.000Z","cacheid":"LRM.EHZ.MB.--"}
{"Cmd":"Site","Elv":3645.000000,"Lat":29.703100,"Lon":91.127000,"Site":"LSA.BHZ.IC.00","UpdateTime":"2017-03-23T19:16:22.000Z","cacheid":"LSA.BHZ.IC.00"}
{"Cmd":"Site","Elv":1200.000000,"Lat":-15.277900,"Lon":28.188200,"Site":"LSZ.BHZ.IU.10","UpdateTime":"2017-03-23T19:21:21.000Z","cacheid":"LSZ.BHZ.IU.10"}
{"Cmd":"Site","Elv":807.000000,"Lat":47.254510,"Lon":-120.666360,"Site":"LTY.BHZ.UW.--","UpdateTime":"2017-03-23T19:08:41.000Z","cacheid":"LTY.BHZ.UW.--"}
{"Cmd":"Site","Elv":648.000000,"Lat":-42.781667,"Lon":172.271035,"Site":"LTZ.HHZ.NZ.10","UpdateTime":"2017-03-23T19:11:10.000Z","cacheid":"LTZ.HHZ.NZ.10"}
{"Cmd":"Site","Elv":255.000000,"Lat":40.598700,"Lon":-75.371800,"Site":"LUPA.HHZ.LD.--","UpdateTime":"2017-03-23T19:20:15.000Z","cacheid":"LUPA.HHZ.LD.--"}
{"Cmd":"Site","Elv":6.000000,"Lat":-1.041800,"Lon":122.771700,"Site":"LUWI.BHZ.GE.--","UpdateTime":"2017-03-23T19:21:49.000Z","cacheid":"LUWI.BHZ.GE.--"}
{"Cmd":"Site","Elv":2930.000000,"Lat":-22.612700,"Lon":-68.911100,"Site":"LVC.BHZ.IU.10","UpdateTime":"2017-03-23T19:19:43.000Z","cacheid":"LVC.BHZ.IU.10"}
{"Cmd":"Site","Elv":430.000000,"Lat":67.897900,"Lon":34.651400,"Site":"LVZ.BHZ.II.00","UpdateTime":"2017-03-23T19:18:58.000Z","cacheid":"LVZ.BHZ.II.00"}
{"Cmd":"Site","Elv":521.000000,"Lat":61.903700,"Lon":-154.391500,"Site":"M19K.BHZ.TA.--","UpdateTime":"2017-03-23T19:17:01.000Z","cacheid":"M19K.BHZ.TA.--"}
{"Cmd":"Site","Elv":905.500000,"Lat":62.106700,"Lon":-146.175000,"Site":"M24K.BHZ.TA.--","UpdateTime":"2017-03-23T19:14:47.000Z","cacheid":"M24K.BHZ.TA.--"}
{"Cmd":"Site","Elv":887.000000,"Lat":62.401300,"Lon":-142.996300,"Site":"M26K.BHZ.TA.--","UpdateTime":"2017-03-23T19:07:13.000Z","cacheid":"M26K.BHZ.TA.--"}
{"Cmd":"Site","Elv":1534.000000,"Lat":62.357900,"Lon":-141.878000,"Site":"M27K.BHZ.TA.--","UpdateTime":"2017-03-23T19:21:19.000Z","cacheid":"M27K.BHZ.TA.--"}
{"Cmd":"Site","Elv":207.000000,"Lat":41.388200,"Lon":-88.043200,"Site":"M44A.BHZ.N4.--","UpdateTime":"2017-03-23T19:10:06.000Z","cacheid":"M44A.BHZ.N4.--"}
{"Cmd":"Site","Elv":176.000000,"Lat":41.403500,"Lon":-83.042800,"Site":"M50A.BHZ.N4.--","UpdateTime":"2017-03-23T19:20:06.000Z","cacheid":"M50A.BHZ.N4.--"}
{"Cmd":"Site","Elv":382.000000,"Lat":41.540500,"Lon":-81.357000,"Site":"M52A.BHZ.N4.--","UpdateTime":"2017-03-23T19:37:12.000Z","cacheid":"M52A.BHZ.N4.--"}
{"Cmd":"Site","Elv":334.000000,"Lat":41.439300,"Lon":-80.675000,"Site":"M53A.BHZ.TA.--","UpdateTime":"2017-03-23T19:22:10.000Z","cacheid":"M53A.BHZ.TA.--"}
{"Cmd":"Site","Elv":488.000000,"Lat":41.507900,"Lon":-79.664700,"Site":"M54A.BHZ.TA.--","UpdateTime":"2017-03-23T19:20:10.000Z","cacheid":"M54A.BHZ.TA.--"}
{"Cmd":"Site","Elv":531.000000,"Lat":41.468600,"Lon":-78.764900,"Site":"M55A.BHZ.N4.--","UpdateTime":"2017-03-23T19:33:40.000Z","cacheid":"M55A.BHZ.N4.--"}
{"Cmd":"Site","Elv":319.000000,"Lat":41.337200,"Lon":-77.128000,"Site":"M57A.BHZ.N4.--","UpdateTime":"2017-03-23T19:29:12.000Z","cacheid":"M57A.BHZ.N4.--"}
{"Cmd":"Site","Elv":44.000000,"Lat":41.403800,"Lon":-72.046400,"Site":"M63A.BHZ.N4.--","UpdateTime":"2017-03-23T19:31:15.000Z","cacheid":"M63A.BHZ.N4.--"}
{"Cmd":"Site","Elv":22.000000,"Lat":41.562000,"Lon":-70.646600,"Site":"M65A.BHZ.TA.--","UpdateTime":"2017-03-23T19:28:24.000Z","cacheid":"M65A.BHZ.TA.--"}
{"Cmd":"Site","Elv":337.000000,"Lat":59.575600,"Lon":150.770000,"Site":"MA2.BHZ.IU.00","UpdateTime":"2017-03-23T19:05:58.000Z","cacheid":"MA2.BHZ.IU.00"}
{"Cmd":"Site","Elv":75.000000,"Lat":-3.161500,"Lon":-60.683800,"Site":"MACA.HHZ.BR.--","UpdateTime":"2017-03-23T19:19:28.000Z","cacheid":"MACA.HHZ.BR.--"}
{"Cmd":"Site","Elv":1674.000000,"Lat":28.250200,"Lon":-16.508199,"Site":"MACI.BHZ.IU.--","UpdateTime":"2017-03-23T19:23:36.000Z","cacheid":"MACI.BHZ.IU.--"}
{"Cmd":"Site","Elv":405.000000,"Lat":36.545670,"Lon":138.204060,"Site":"MAJO.BHZ.IU.10","UpdateTime":"2017-03-23T19:10:59.000Z","cacheid":"MAJO.BHZ.IU.10"}
{"Cmd":"Site","Elv":590.000000,"Lat":46.808000,"Lon":81.977000,"Site":"MAKZ.BHZ.IU.00","UpdateTime":"2017-03-23T19:05:54.000Z","cacheid":"MAKZ.BHZ.IU.00"}
{"Cmd":"Site","Elv":2312.000000,"Lat":37.530000,"Lon":71.660000,"Site":"MANEM.HHZ.TJ.--","UpdateTime":"2017-03-23T19:06:02.000Z","cacheid":"MANEM.HHZ.TJ.--"}
{"Cmd":"Site","Elv":138.500000,"Lat":-2.043200,"Lon":147.366200,"Site":"MANU.BHZ.AU.--","UpdateTime":"2017-03-23T19:07:32.000Z","cacheid":"MANU.BHZ.AU.--"}
{"Cmd":"Site","Elv":44.000000,"Lat":-21.480900,"Lon":168.030500,"Site":"MARNC.BHZ.ND.00","UpdateTime":"2017-03-23T19:19:35.000Z","cacheid":"MARNC.BHZ.ND.00"}
{"Cmd":"Site","Elv":869.000000,"Lat":12.929800,"Lon":-85.925500,"Site":"MATN.HHZ.NU.--","UpdateTime":"2017-03-23T19:19:41.000Z","cacheid":"MATN.HHZ.NU.--"}
{"Cmd":"Site","Elv":12.000000,"Lat":-67.604000,"Lon":62.871000,"Site":"MAW.BHZ.AU.--","UpdateTime":"2017-03-23T19:31:21.000Z","cacheid":"MAW.BHZ.AU.--"}
{"Cmd":"Site","Elv":1383.000000,"Lat":-0.601900,"Lon":30.738200,"Site":"MBAR.BHZ.II.10","UpdateTime":"2017-03-23T19:10:53.000Z","cacheid":"MBAR.BHZ.II.10"}
{"Cmd":"Site","Elv":1.000000,"Lat":14.392024,"Lon":-16.955467,"Site":"MBO.BHZ.G.00","UpdateTime":"2017-03-23T19:22:05.000Z","cacheid":"MBO.BHZ.G.00"}
{"Cmd":"Site","Elv":447.000000,"Lat":61.383600,"Lon":-143.024000,"Site":"MCAR.BHZ.AK.--","UpdateTime":"2017-03-23T19:08:37.000Z","cacheid":"MCAR.BHZ.AK.--"}
{"Cmd":"Site","Elv":-11.700000,"Lat":38.144780,"Lon":-122.880180,"Site":"MCCM.BHZ.BK.00","UpdateTime":"2017-03-23T19:14:27.000Z","cacheid":"MCCM.BHZ.BK.00"}
{"Cmd":"Site","Elv":618.000000,"Lat":63.731800,"Lon":-148.937300,"Site":"MCK.BHZ.AK.--","UpdateTime":"2017-03-23T19:06:41.000Z","cacheid":"MCK.BHZ.AK.--"}
{"Cmd":"Site","Elv":2323.000000,"Lat":44.827670,"Lon":-112.848800,"Site":"MCMT.EHZ.MB.--","UpdateTime":"2017-03-23T19:08:20.000Z","cacheid":"MCMT.EHZ.MB.--"}
{"Cmd":"Site","Elv":14.000000,"Lat":-54.498600,"Lon":158.956100,"Site":"MCQ.BHZ.AU.--","UpdateTime":"2017-03-23T19:43:07.000Z","cacheid":"MCQ.BHZ.AU.--"}
{"Cmd":"Site","Elv":280.000000,"Lat":39.658100,"Lon":-79.845600,"Site":"MCWV.BHZ.US.00","UpdateTime":"2017-03-23T19:20:55.000Z","cacheid":"MCWV.BHZ.US.00"}
{"Cmd":"Site","Elv":220.000000,"Lat":44.617000,"Lon":129.590800,"Site":"MDJ.BHZ.IC.00","UpdateTime":"2017-03-23T19:19:59.000Z","cacheid":"MDJ.BHZ.IC.00"}
{"Cmd":"Site","Elv":631.000000,"Lat":64.960200,"Lon":-148.231900,"Site":"MDM.BHZ.AK.--","UpdateTime":"2017-03-23T19:06:31.000Z","cacheid":"MDM.BHZ.AK.--"}
{"Cmd":"Site","Elv":479.000000,"Lat":47.848100,"Lon":-99.602900,"Site":"MDND.BHZ.TA.--","UpdateTime":"2017-03-23T19:22:22.000Z","cacheid":"MDND.BHZ.TA.--"}
{"Cmd":"Site","Elv":2360.000000,"Lat":37.632267,"Lon":-119.079353,"Site":"MDPB.HHZ.NC.--","UpdateTime":"2017-03-23T19:35:07.000Z","cacheid":"MDPB.HHZ.NC.--"}
{"Cmd":"Site","Elv":1109.000000,"Lat":40.471200,"Lon":31.197700,"Site":"MDUB.BHZ.KO.--","UpdateTime":"2017-03-23T19:22:01.000Z","cacheid":"MDUB.BHZ.KO.--"}
{"Cmd":"Site","Elv":190.500000,"Lat":43.164610,"Lon":-78.454610,"Site":"MEDO.HHZ.WU.--","UpdateTime":"2017-03-23T19:44:27.000Z","cacheid":"MEDO.HHZ.WU.--"}
{"Cmd":"Site","Elv":702.000000,"Lat":62.938050,"Lon":-143.719420,"Site":"MENT.BHZ.AT.--","UpdateTime":"2017-03-23T19:06:55.000Z","cacheid":"MENT.BHZ.AT.--"}
